[
  {
    "id": 4183,
    "country_id": 201,
    "name": "Ajdovščina",
    "state_code": "001",
    "latitude": "45.88707760",
    "longitude": "13.90428180",
    "cities": [
      {
        "id": 104059,
        "name": "Ajdovščina",
        "latitude": "45.88601000",
        "longitude": "13.90946000"
      },
      {
        "id": 104084,
        "name": "Cirkulane",
        "latitude": "46.34408000",
        "longitude": "15.99472000"
      },
      {
        "id": 104174,
        "name": "Lokavec",
        "latitude": "45.90167000",
        "longitude": "13.87972000"
      }
    ]
  },
  {
    "id": 4326,
    "country_id": 201,
    "name": "Ankaran",
    "state_code": "213",
    "latitude": "45.57845100",
    "longitude": "13.73691740",
    "cities": [
      {
        "id": 104060,
        "name": "Ankaran",
        "latitude": "45.57861000",
        "longitude": "13.73611000"
      }
    ]
  },
  {
    "id": 4318,
    "country_id": 201,
    "name": "Apače",
    "state_code": "195",
    "latitude": "46.69746790",
    "longitude": "15.91025340",
    "cities": [
      {
        "id": 104061,
        "name": "Apače",
        "latitude": "46.69722000",
        "longitude": "15.91056000"
      }
    ]
  },
  {
    "id": 4301,
    "country_id": 201,
    "name": "Beltinci",
    "state_code": "002",
    "latitude": "46.60791530",
    "longitude": "16.23651270",
    "cities": [
      {
        "id": 104063,
        "name": "Beltinci",
        "latitude": "46.60528000",
        "longitude": "16.24056000"
      },
      {
        "id": 104104,
        "name": "Gančani",
        "latitude": "46.63250000",
        "longitude": "16.25111000"
      },
      {
        "id": 104166,
        "name": "Lipovci",
        "latitude": "46.62833000",
        "longitude": "16.22806000"
      },
      {
        "id": 104331,
        "name": "Zgornje Gorje",
        "latitude": "46.37962000",
        "longitude": "14.06937000"
      }
    ]
  },
  {
    "id": 4166,
    "country_id": 201,
    "name": "Benedikt",
    "state_code": "148",
    "latitude": "46.61558410",
    "longitude": "15.89572810",
    "cities": [
      {
        "id": 104064,
        "name": "Benedikt",
        "latitude": "46.60861000",
        "longitude": "15.88833000"
      }
    ]
  },
  {
    "id": 4179,
    "country_id": 201,
    "name": "Bistrica ob Sotli",
    "state_code": "149",
    "latitude": "46.05655790",
    "longitude": "15.66259470",
    "cities": [
      {
        "id": 104067,
        "name": "Bistrica ob Sotli",
        "latitude": "46.05889000",
        "longitude": "15.66417000"
      }
    ]
  },
  {
    "id": 4202,
    "country_id": 201,
    "name": "Bled",
    "state_code": "003",
    "latitude": "46.36832660",
    "longitude": "14.11457980",
    "cities": [
      {
        "id": 104069,
        "name": "Bled",
        "latitude": "46.36917000",
        "longitude": "14.11361000"
      },
      {
        "id": 104144,
        "name": "Kostanjevica na Krki",
        "latitude": "45.84611000",
        "longitude": "15.42222000"
      },
      {
        "id": 104326,
        "name": "Zasip",
        "latitude": "46.39284000",
        "longitude": "14.10869000"
      }
    ]
  },
  {
    "id": 4278,
    "country_id": 201,
    "name": "Bloke",
    "state_code": "150",
    "latitude": "45.77281410",
    "longitude": "14.50634590",
    "cities": [
      {
        "id": 104207,
        "name": "Nova Vas",
        "latitude": "45.77167000",
        "longitude": "14.50583000"
      }
    ]
  },
  {
    "id": 4282,
    "country_id": 201,
    "name": "Bohinj",
    "state_code": "004",
    "latitude": "46.30056520",
    "longitude": "13.94271950",
    "cities": [
      {
        "id": 104070,
        "name": "Bohinjska Bistrica",
        "latitude": "46.27216000",
        "longitude": "13.95350000"
      },
      {
        "id": 104100,
        "name": "Dragomer",
        "latitude": "46.01667000",
        "longitude": "14.38333000"
      },
      {
        "id": 104172,
        "name": "Log pri Brezovici",
        "latitude": "46.01667000",
        "longitude": "14.36667000"
      }
    ]
  },
  {
    "id": 4200,
    "country_id": 201,
    "name": "Borovnica",
    "state_code": "005",
    "latitude": "45.90445250",
    "longitude": "14.38241890",
    "cities": [
      {
        "id": 104071,
        "name": "Borovnica",
        "latitude": "45.91583000",
        "longitude": "14.36306000"
      },
      {
        "id": 104180,
        "name": "Makole",
        "latitude": "46.31722000",
        "longitude": "15.66722000"
      }
    ]
  },
  {
    "id": 4181,
    "country_id": 201,
    "name": "Bovec",
    "state_code": "006",
    "latitude": "46.33804950",
    "longitude": "13.55241740",
    "cities": [
      {
        "id": 104072,
        "name": "Bovec",
        "latitude": "46.33808000",
        "longitude": "13.55245000"
      },
      {
        "id": 104190,
        "name": "Mirna",
        "latitude": "45.95528000",
        "longitude": "15.06194000"
      }
    ]
  },
  {
    "id": 4141,
    "country_id": 201,
    "name": "Braslovče",
    "state_code": "151",
    "latitude": "46.28361920",
    "longitude": "15.04183200",
    "cities": [
      {
        "id": 104073,
        "name": "Braslovče",
        "latitude": "46.28972000",
        "longitude": "15.03889000"
      }
    ]
  },
  {
    "id": 4240,
    "country_id": 201,
    "name": "Brda",
    "state_code": "007",
    "latitude": "45.99756520",
    "longitude": "13.52704740",
    "cities": [
      {
        "id": 104094,
        "name": "Dobrovo",
        "latitude": "45.99639000",
        "longitude": "13.52639000"
      },
      {
        "id": 104195,
        "name": "Mokronog",
        "latitude": "45.93417000",
        "longitude": "15.14083000"
      }
    ]
  },
  {
    "id": 4215,
    "country_id": 201,
    "name": "Brežice",
    "state_code": "009",
    "latitude": "45.90410960",
    "longitude": "15.59436390",
    "cities": [
      {
        "id": 104076,
        "name": "Brežice",
        "latitude": "45.90333000",
        "longitude": "15.59111000"
      },
      {
        "id": 104227,
        "name": "Poljčane",
        "latitude": "46.31194000",
        "longitude": "15.57917000"
      }
    ]
  },
  {
    "id": 4165,
    "country_id": 201,
    "name": "Brezovica",
    "state_code": "008",
    "latitude": "45.95593510",
    "longitude": "14.43499520",
    "cities": [
      {
        "id": 104075,
        "name": "Brezovica pri Ljubljani",
        "latitude": "46.03333000",
        "longitude": "14.40000000"
      },
      {
        "id": 104205,
        "name": "Notranje Gorice",
        "latitude": "45.98750000",
        "longitude": "14.39889000"
      },
      {
        "id": 104214,
        "name": "Opština Ljubljana-Vič-Rudnik",
        "latitude": "46.03333000",
        "longitude": "14.41667000"
      },
      {
        "id": 104254,
        "name": "Rečica ob Savinji",
        "latitude": "46.31667000",
        "longitude": "14.91667000"
      },
      {
        "id": 104316,
        "name": "Vnanje Gorice",
        "latitude": "46.00722000",
        "longitude": "14.42194000"
      }
    ]
  },
  {
    "id": 4147,
    "country_id": 201,
    "name": "Cankova",
    "state_code": "152",
    "latitude": "46.71823700",
    "longitude": "16.01972220",
    "cities": [
      {
        "id": 104078,
        "name": "Cankova",
        "latitude": "46.72083000",
        "longitude": "16.02250000"
      }
    ]
  },
  {
    "id": 4191,
    "country_id": 201,
    "name": "Celje",
    "state_code": "011",
    "latitude": "46.23974950",
    "longitude": "15.26770630",
    "cities": [
      {
        "id": 104079,
        "name": "Celje",
        "latitude": "46.23092000",
        "longitude": "15.26044000"
      },
      {
        "id": 104168,
        "name": "Ljubečna",
        "latitude": "46.25567000",
        "longitude": "15.32430000"
      },
      {
        "id": 104299,
        "name": "Trnovlje pri Celju",
        "latitude": "46.25667000",
        "longitude": "15.29528000"
      }
    ]
  },
  {
    "id": 4310,
    "country_id": 201,
    "name": "Cerklje na Gorenjskem",
    "state_code": "012",
    "latitude": "46.25170540",
    "longitude": "14.48579790",
    "cities": [
      {
        "id": 104080,
        "name": "Cerklje na Gorenjskem",
        "latitude": "46.25417000",
        "longitude": "14.48861000"
      }
    ]
  },
  {
    "id": 4162,
    "country_id": 201,
    "name": "Cerknica",
    "state_code": "013",
    "latitude": "45.79662550",
    "longitude": "14.39217700",
    "cities": [
      {
        "id": 104081,
        "name": "Cerknica",
        "latitude": "45.79306000",
        "longitude": "14.36250000"
      },
      {
        "id": 104246,
        "name": "Rakek",
        "latitude": "45.81333000",
        "longitude": "14.31111000"
      }
    ]
  },
  {
    "id": 4178,
    "country_id": 201,
    "name": "Cerkno",
    "state_code": "014",
    "latitude": "46.12884140",
    "longitude": "13.98940270",
    "cities": [
      {
        "id": 104082,
        "name": "Cerkno",
        "latitude": "46.12556000",
        "longitude": "13.98167000"
      }
    ]
  },
  {
    "id": 4176,
    "country_id": 201,
    "name": "Cerkvenjak",
    "state_code": "153",
    "latitude": "46.56707110",
    "longitude": "15.94297530",
    "cities": [
      {
        "id": 104083,
        "name": "Cerkvenjak",
        "latitude": "46.57056000",
        "longitude": "15.94361000"
      }
    ]
  },
  {
    "id": 4309,
    "country_id": 201,
    "name": "Cirkulane",
    "state_code": "196",
    "latitude": "46.32983220",
    "longitude": "15.99806660"
  },
  {
    "id": 4151,
    "country_id": 201,
    "name": "Črenšovci",
    "state_code": "015",
    "latitude": "46.57200290",
    "longitude": "16.28773460",
    "cities": [
      {
        "id": 104337,
        "name": "Črenšovci",
        "latitude": "46.55794000",
        "longitude": "16.30410000"
      }
    ]
  },
  {
    "id": 4232,
    "country_id": 201,
    "name": "Črna na Koroškem",
    "state_code": "016",
    "latitude": "46.47045290",
    "longitude": "14.84999980",
    "cities": [
      {
        "id": 104338,
        "name": "Črna na Koroškem",
        "latitude": "46.47045000",
        "longitude": "14.85009000"
      }
    ]
  },
  {
    "id": 4291,
    "country_id": 201,
    "name": "Črnomelj",
    "state_code": "017",
    "latitude": "45.53612250",
    "longitude": "15.19441430",
    "cities": [
      {
        "id": 104339,
        "name": "Črnomelj",
        "latitude": "45.57111000",
        "longitude": "15.18889000"
      }
    ]
  },
  {
    "id": 4304,
    "country_id": 201,
    "name": "Destrnik",
    "state_code": "018",
    "latitude": "46.49223680",
    "longitude": "15.87779560",
    "cities": [
      {
        "id": 104087,
        "name": "Destrnik",
        "latitude": "46.49254000",
        "longitude": "15.87893000"
      }
    ]
  },
  {
    "id": 4167,
    "country_id": 201,
    "name": "Divača",
    "state_code": "019",
    "latitude": "45.68060690",
    "longitude": "13.97203120",
    "cities": [
      {
        "id": 104088,
        "name": "Divača",
        "latitude": "45.68472000",
        "longitude": "13.97028000"
      }
    ]
  },
  {
    "id": 4295,
    "country_id": 201,
    "name": "Dobje",
    "state_code": "154",
    "latitude": "46.13700370",
    "longitude": "15.39412900",
    "cities": [
      {
        "id": 104090,
        "name": "Dobje pri Planini",
        "latitude": "46.13747000",
        "longitude": "15.39412000"
      }
    ]
  },
  {
    "id": 4216,
    "country_id": 201,
    "name": "Dobrepolje",
    "state_code": "020",
    "latitude": "45.85249510",
    "longitude": "14.70831090",
    "cities": [
      {
        "id": 104309,
        "name": "Videm",
        "latitude": "45.85000000",
        "longitude": "14.69417000"
      }
    ]
  },
  {
    "id": 4252,
    "country_id": 201,
    "name": "Dobrna",
    "state_code": "155",
    "latitude": "46.33561410",
    "longitude": "15.22597320",
    "cities": [
      {
        "id": 104091,
        "name": "Dobrna",
        "latitude": "46.33750000",
        "longitude": "15.22639000"
      }
    ]
  },
  {
    "id": 4308,
    "country_id": 201,
    "name": "Dobrova–Polhov Gradec",
    "state_code": "021",
    "latitude": "46.06488960",
    "longitude": "14.31681950",
    "cities": [
      {
        "id": 104092,
        "name": "Dobrova",
        "latitude": "46.04580000",
        "longitude": "14.39186000"
      }
    ]
  },
  {
    "id": 4189,
    "country_id": 201,
    "name": "Dobrovnik",
    "state_code": "156",
    "latitude": "46.65386620",
    "longitude": "16.35065940",
    "cities": [
      {
        "id": 104093,
        "name": "Dobrovnik",
        "latitude": "46.65139000",
        "longitude": "16.35250000"
      }
    ]
  },
  {
    "id": 4173,
    "country_id": 201,
    "name": "Dol pri Ljubljani",
    "state_code": "022",
    "latitude": "46.08843860",
    "longitude": "14.64247920",
    "cities": [
      {
        "id": 104096,
        "name": "Dol pri Ljubljani",
        "latitude": "46.08861000",
        "longitude": "14.60083000"
      }
    ]
  },
  {
    "id": 4281,
    "country_id": 201,
    "name": "Dolenjske Toplice",
    "state_code": "157",
    "latitude": "45.73457110",
    "longitude": "15.01294930",
    "cities": [
      {
        "id": 104097,
        "name": "Dolenjske Toplice",
        "latitude": "45.75657000",
        "longitude": "15.05917000"
      }
    ]
  },
  {
    "id": 4159,
    "country_id": 201,
    "name": "Domžale",
    "state_code": "023",
    "latitude": "46.14382690",
    "longitude": "14.63752790",
    "cities": [
      {
        "id": 104089,
        "name": "Dob",
        "latitude": "46.15194000",
        "longitude": "14.62861000"
      },
      {
        "id": 104098,
        "name": "Domžale",
        "latitude": "46.13774000",
        "longitude": "14.59371000"
      },
      {
        "id": 104244,
        "name": "Radomlje",
        "latitude": "46.17361000",
        "longitude": "14.61222000"
      },
      {
        "id": 104312,
        "name": "Vir",
        "latitude": "46.15325000",
        "longitude": "14.60741000"
      }
    ]
  },
  {
    "id": 4290,
    "country_id": 201,
    "name": "Dornava",
    "state_code": "024",
    "latitude": "46.44435130",
    "longitude": "15.98891590",
    "cities": [
      {
        "id": 104099,
        "name": "Dornava",
        "latitude": "46.43667000",
        "longitude": "15.95361000"
      }
    ]
  },
  {
    "id": 4345,
    "country_id": 201,
    "name": "Dravograd",
    "state_code": "025",
    "latitude": "46.58921900",
    "longitude": "15.02460210",
    "cities": [
      {
        "id": 104102,
        "name": "Dravograd",
        "latitude": "46.58806000",
        "longitude": "15.01917000"
      }
    ]
  },
  {
    "id": 4213,
    "country_id": 201,
    "name": "Duplek",
    "state_code": "026",
    "latitude": "46.50100160",
    "longitude": "15.75463070",
    "cities": [
      {
        "id": 104283,
        "name": "Spodnji Duplek",
        "latitude": "46.50306000",
        "longitude": "15.74528000"
      },
      {
        "id": 104334,
        "name": "Zgornji Duplek",
        "latitude": "46.51361000",
        "longitude": "15.72083000"
      }
    ]
  },
  {
    "id": 4293,
    "country_id": 201,
    "name": "Gorenja Vas–Poljane",
    "state_code": "027",
    "latitude": "46.11165820",
    "longitude": "14.11493480",
    "cities": [
      {
        "id": 104106,
        "name": "Gorenja Vas",
        "latitude": "46.10722000",
        "longitude": "14.14806000"
      }
    ]
  },
  {
    "id": 4210,
    "country_id": 201,
    "name": "Gorišnica",
    "state_code": "028",
    "latitude": "46.41202710",
    "longitude": "16.01330890",
    "cities": [
      {
        "id": 104107,
        "name": "Gorišnica",
        "latitude": "46.41472000",
        "longitude": "16.01389000"
      }
    ]
  },
  {
    "id": 4284,
    "country_id": 201,
    "name": "Gorje",
    "state_code": "207",
    "latitude": "46.38024580",
    "longitude": "14.06853390"
  },
  {
    "id": 4343,
    "country_id": 201,
    "name": "Gornja Radgona",
    "state_code": "029",
    "latitude": "46.67670990",
    "longitude": "15.99108470",
    "cities": [
      {
        "id": 104108,
        "name": "Gornja Radgona",
        "latitude": "46.67333000",
        "longitude": "15.99222000"
      }
    ]
  },
  {
    "id": 4339,
    "country_id": 201,
    "name": "Gornji Grad",
    "state_code": "030",
    "latitude": "46.29617120",
    "longitude": "14.80623470",
    "cities": [
      {
        "id": 104109,
        "name": "Gornji Grad",
        "latitude": "46.29528000",
        "longitude": "14.80833000"
      }
    ]
  },
  {
    "id": 4271,
    "country_id": 201,
    "name": "Gornji Petrovci",
    "state_code": "031",
    "latitude": "46.80371280",
    "longitude": "16.21913790",
    "cities": [
      {
        "id": 104110,
        "name": "Gornji Petrovci",
        "latitude": "46.80528000",
        "longitude": "16.22250000"
      }
    ]
  },
  {
    "id": 4217,
    "country_id": 201,
    "name": "Grad",
    "state_code": "158",
    "latitude": "46.80873200",
    "longitude": "16.10920600",
    "cities": [
      {
        "id": 104112,
        "name": "Grad",
        "latitude": "46.80000000",
        "longitude": "16.10000000"
      }
    ]
  },
  {
    "id": 4336,
    "country_id": 201,
    "name": "Grosuplje",
    "state_code": "032",
    "latitude": "45.95576450",
    "longitude": "14.65889900",
    "cities": [
      {
        "id": 104113,
        "name": "Grosuplje",
        "latitude": "45.95556000",
        "longitude": "14.65889000"
      },
      {
        "id": 104357,
        "name": "Šmarje-Sap",
        "latitude": "45.97618000",
        "longitude": "14.61177000"
      }
    ]
  },
  {
    "id": 4145,
    "country_id": 201,
    "name": "Hajdina",
    "state_code": "159",
    "latitude": "46.41850140",
    "longitude": "15.82447220",
    "cities": [
      {
        "id": 104279,
        "name": "Spodnja Hajdina",
        "latitude": "46.40889000",
        "longitude": "15.84694000"
      }
    ]
  },
  {
    "id": 4175,
    "country_id": 201,
    "name": "Hoče–Slivnica",
    "state_code": "160",
    "latitude": "46.47785800",
    "longitude": "15.64760050",
    "cities": [
      {
        "id": 104116,
        "name": "Hotinja Vas",
        "latitude": "46.46667000",
        "longitude": "15.66667000"
      },
      {
        "id": 104242,
        "name": "Radizel",
        "latitude": "46.47444000",
        "longitude": "15.65583000"
      },
      {
        "id": 104260,
        "name": "Rogoza",
        "latitude": "46.50000000",
        "longitude": "15.68333000"
      },
      {
        "id": 104281,
        "name": "Spodnje Hoče",
        "latitude": "46.50000000",
        "longitude": "15.65000000"
      }
    ]
  },
  {
    "id": 4327,
    "country_id": 201,
    "name": "Hodoš",
    "state_code": "161",
    "latitude": "46.83141340",
    "longitude": "16.32106800",
    "cities": [
      {
        "id": 104114,
        "name": "Hodoš",
        "latitude": "46.82333000",
        "longitude": "16.33417000"
      }
    ]
  },
  {
    "id": 4193,
    "country_id": 201,
    "name": "Horjul",
    "state_code": "162",
    "latitude": "46.02253780",
    "longitude": "14.29862690",
    "cities": [
      {
        "id": 104115,
        "name": "Horjul",
        "latitude": "46.02361000",
        "longitude": "14.29917000"
      }
    ]
  },
  {
    "id": 4341,
    "country_id": 201,
    "name": "Hrastnik",
    "state_code": "034",
    "latitude": "46.14172880",
    "longitude": "15.08448940",
    "cities": [
      {
        "id": 104095,
        "name": "Dol pri Hrastniku",
        "latitude": "46.14194000",
        "longitude": "15.11278000"
      },
      {
        "id": 104118,
        "name": "Hrastnik",
        "latitude": "46.14611000",
        "longitude": "15.08139000"
      }
    ]
  },
  {
    "id": 4321,
    "country_id": 201,
    "name": "Hrpelje–Kozina",
    "state_code": "035",
    "latitude": "45.60911920",
    "longitude": "13.93791480",
    "cities": [
      {
        "id": 104147,
        "name": "Kozina",
        "latitude": "45.61000000",
        "longitude": "13.93556000"
      }
    ]
  },
  {
    "id": 4152,
    "country_id": 201,
    "name": "Idrija",
    "state_code": "036",
    "latitude": "46.00409390",
    "longitude": "13.97754930",
    "cities": [
      {
        "id": 104122,
        "name": "Idrija",
        "latitude": "46.00278000",
        "longitude": "14.03056000"
      },
      {
        "id": 104280,
        "name": "Spodnja Idrija",
        "latitude": "46.03194000",
        "longitude": "14.02722000"
      }
    ]
  },
  {
    "id": 4286,
    "country_id": 201,
    "name": "Ig",
    "state_code": "037",
    "latitude": "45.95888680",
    "longitude": "14.52705280",
    "cities": [
      {
        "id": 104123,
        "name": "Ig",
        "latitude": "45.96028000",
        "longitude": "14.52889000"
      }
    ]
  },
  {
    "id": 4344,
    "country_id": 201,
    "name": "Ilirska Bistrica",
    "state_code": "038",
    "latitude": "45.57913230",
    "longitude": "14.28097290",
    "cities": [
      {
        "id": 104124,
        "name": "Ilirska Bistrica",
        "latitude": "45.56757000",
        "longitude": "14.24571000"
      }
    ]
  },
  {
    "id": 4305,
    "country_id": 201,
    "name": "Ivančna Gorica",
    "state_code": "039",
    "latitude": "45.93958410",
    "longitude": "14.80476260",
    "cities": [
      {
        "id": 104125,
        "name": "Ivančna Gorica",
        "latitude": "45.93833000",
        "longitude": "14.80444000"
      },
      {
        "id": 104350,
        "name": "Šentvid pri Stični",
        "latitude": "45.95004000",
        "longitude": "14.84344000"
      }
    ]
  },
  {
    "id": 4322,
    "country_id": 201,
    "name": "Izola",
    "state_code": "040",
    "latitude": "45.53135570",
    "longitude": "13.66646490",
    "cities": [
      {
        "id": 104127,
        "name": "Izola",
        "latitude": "45.53694000",
        "longitude": "13.66194000"
      },
      {
        "id": 104128,
        "name": "Jagodje",
        "latitude": "45.52845000",
        "longitude": "13.64721000"
      }
    ]
  },
  {
    "id": 4337,
    "country_id": 201,
    "name": "Jesenice",
    "state_code": "041",
    "latitude": "46.43670470",
    "longitude": "14.05260570",
    "cities": [
      {
        "id": 104120,
        "name": "Hrušica",
        "latitude": "46.44500000",
        "longitude": "14.01778000"
      },
      {
        "id": 104130,
        "name": "Jesenice",
        "latitude": "46.43056000",
        "longitude": "14.06694000"
      },
      {
        "id": 104143,
        "name": "Koroška Bela",
        "latitude": "46.44913000",
        "longitude": "14.11135000"
      },
      {
        "id": 104274,
        "name": "Slovenski Javornik",
        "latitude": "46.42611000",
        "longitude": "14.08722000"
      }
    ]
  },
  {
    "id": 4203,
    "country_id": 201,
    "name": "Jezersko",
    "state_code": "163",
    "latitude": "46.39427940",
    "longitude": "14.49855590",
    "cities": [
      {
        "id": 104332,
        "name": "Zgornje Jezersko",
        "latitude": "46.39410000",
        "longitude": "14.50659000"
      }
    ]
  },
  {
    "id": 4266,
    "country_id": 201,
    "name": "Juršinci",
    "state_code": "042",
    "latitude": "46.48986510",
    "longitude": "15.98092300",
    "cities": [
      {
        "id": 104131,
        "name": "Juršinci",
        "latitude": "46.48472000",
        "longitude": "15.97139000"
      }
    ]
  },
  {
    "id": 4180,
    "country_id": 201,
    "name": "Kamnik",
    "state_code": "043",
    "latitude": "46.22216660",
    "longitude": "14.60707270",
    "cities": [
      {
        "id": 104133,
        "name": "Kamnik",
        "latitude": "46.22587000",
        "longitude": "14.61207000"
      },
      {
        "id": 104184,
        "name": "Mekinje",
        "latitude": "46.23333000",
        "longitude": "14.61667000"
      },
      {
        "id": 104355,
        "name": "Šmarca",
        "latitude": "46.19333000",
        "longitude": "14.59667000"
      }
    ]
  },
  {
    "id": 4227,
    "country_id": 201,
    "name": "Kanal ob Soči",
    "state_code": "044",
    "latitude": "46.06735300",
    "longitude": "13.62033500",
    "cities": [
      {
        "id": 104086,
        "name": "Deskle",
        "latitude": "46.05307000",
        "longitude": "13.61382000"
      },
      {
        "id": 104134,
        "name": "Kanal",
        "latitude": "46.08861000",
        "longitude": "13.63972000"
      }
    ]
  },
  {
    "id": 4150,
    "country_id": 201,
    "name": "Kidričevo",
    "state_code": "045",
    "latitude": "46.39575720",
    "longitude": "15.79259060",
    "cities": [
      {
        "id": 104135,
        "name": "Kidričevo",
        "latitude": "46.40361000",
        "longitude": "15.79111000"
      }
    ]
  },
  {
    "id": 4243,
    "country_id": 201,
    "name": "Kobarid",
    "state_code": "046",
    "latitude": "46.24569710",
    "longitude": "13.57869490",
    "cities": [
      {
        "id": 104137,
        "name": "Kobarid",
        "latitude": "46.24761000",
        "longitude": "13.57907000"
      }
    ]
  },
  {
    "id": 4325,
    "country_id": 201,
    "name": "Kobilje",
    "state_code": "047",
    "latitude": "46.68518000",
    "longitude": "16.39367190",
    "cities": [
      {
        "id": 104138,
        "name": "Kobilje",
        "latitude": "46.68472000",
        "longitude": "16.39778000"
      }
    ]
  },
  {
    "id": 4335,
    "country_id": 201,
    "name": "Kočevje",
    "state_code": "048",
    "latitude": "45.64280000",
    "longitude": "14.86158380",
    "cities": [
      {
        "id": 104149,
        "name": "Kočevje",
        "latitude": "45.64333000",
        "longitude": "14.86333000"
      }
    ]
  },
  {
    "id": 4315,
    "country_id": 201,
    "name": "Komen",
    "state_code": "049",
    "latitude": "45.81752350",
    "longitude": "13.74827110",
    "cities": [
      {
        "id": 104140,
        "name": "Komen",
        "latitude": "45.81528000",
        "longitude": "13.74833000"
      }
    ]
  },
  {
    "id": 4283,
    "country_id": 201,
    "name": "Komenda",
    "state_code": "164",
    "latitude": "46.20648800",
    "longitude": "14.53824990",
    "cities": [
      {
        "id": 104141,
        "name": "Komenda",
        "latitude": "46.20484000",
        "longitude": "14.53839000"
      },
      {
        "id": 104199,
        "name": "Moste",
        "latitude": "46.19500000",
        "longitude": "14.55139000"
      }
    ]
  },
  {
    "id": 4319,
    "country_id": 201,
    "name": "Koper",
    "state_code": "050",
    "latitude": "45.54805900",
    "longitude": "13.73018770",
    "cities": [
      {
        "id": 104085,
        "name": "Dekani",
        "latitude": "45.54972000",
        "longitude": "13.81361000"
      },
      {
        "id": 104121,
        "name": "Hrvatini",
        "latitude": "45.58278000",
        "longitude": "13.75667000"
      },
      {
        "id": 104142,
        "name": "Koper",
        "latitude": "45.54694000",
        "longitude": "13.72944000"
      },
      {
        "id": 104223,
        "name": "Pobegi",
        "latitude": "45.53944000",
        "longitude": "13.79611000"
      },
      {
        "id": 104231,
        "name": "Prade",
        "latitude": "45.54003000",
        "longitude": "13.77607000"
      },
      {
        "id": 104282,
        "name": "Spodnje Škofije",
        "latitude": "45.57167000",
        "longitude": "13.79250000"
      },
      {
        "id": 104288,
        "name": "Sv. Anton",
        "latitude": "45.52583000",
        "longitude": "13.83194000"
      }
    ]
  },
  {
    "id": 4254,
    "country_id": 201,
    "name": "Kostanjevica na Krki",
    "state_code": "197",
    "latitude": "45.83166380",
    "longitude": "15.44119060"
  },
  {
    "id": 4331,
    "country_id": 201,
    "name": "Kostel",
    "state_code": "165",
    "latitude": "45.49282550",
    "longitude": "14.87082350",
    "cities": [
      {
        "id": 104145,
        "name": "Kostel",
        "latitude": "45.50842000",
        "longitude": "14.91005000"
      }
    ]
  },
  {
    "id": 4186,
    "country_id": 201,
    "name": "Kozje",
    "state_code": "051",
    "latitude": "46.07332110",
    "longitude": "15.55967190",
    "cities": [
      {
        "id": 104148,
        "name": "Kozje",
        "latitude": "46.07500000",
        "longitude": "15.56028000"
      }
    ]
  },
  {
    "id": 4287,
    "country_id": 201,
    "name": "Kranj",
    "state_code": "052",
    "latitude": "46.25850210",
    "longitude": "14.35435690",
    "cities": [
      {
        "id": 104077,
        "name": "Britof",
        "latitude": "46.26024000",
        "longitude": "14.39037000"
      },
      {
        "id": 104105,
        "name": "Golnik",
        "latitude": "46.33333000",
        "longitude": "14.33333000"
      },
      {
        "id": 104139,
        "name": "Kokrica",
        "latitude": "46.27028000",
        "longitude": "14.36111000"
      },
      {
        "id": 104150,
        "name": "Kranj",
        "latitude": "46.23887000",
        "longitude": "14.35561000"
      },
      {
        "id": 104193,
        "name": "Mlaka pri Kranju",
        "latitude": "46.28333000",
        "longitude": "14.35000000"
      },
      {
        "id": 104330,
        "name": "Zgornje Bitnje",
        "latitude": "46.22000000",
        "longitude": "14.33667000"
      }
    ]
  },
  {
    "id": 4340,
    "country_id": 201,
    "name": "Kranjska Gora",
    "state_code": "053",
    "latitude": "46.48452930",
    "longitude": "13.78571450",
    "cities": [
      {
        "id": 104151,
        "name": "Kranjska Gora",
        "latitude": "46.45689000",
        "longitude": "13.77824000"
      },
      {
        "id": 104194,
        "name": "Mojstrana",
        "latitude": "46.42383000",
        "longitude": "13.87520000"
      }
    ]
  },
  {
    "id": 4238,
    "country_id": 201,
    "name": "Križevci",
    "state_code": "166",
    "latitude": "46.57018210",
    "longitude": "16.10926530",
    "cities": [
      {
        "id": 104152,
        "name": "Križevci pri Ljutomeru",
        "latitude": "46.56833000",
        "longitude": "16.13861000"
      }
    ]
  },
  {
    "id": 4314,
    "country_id": 201,
    "name": "Krško",
    "state_code": "054",
    "latitude": "45.95896090",
    "longitude": "15.49235550",
    "cities": [
      {
        "id": 104155,
        "name": "Krško",
        "latitude": "45.95915000",
        "longitude": "15.49167000"
      },
      {
        "id": 104164,
        "name": "Leskovec pri Krškem",
        "latitude": "45.93566000",
        "longitude": "15.47184000"
      },
      {
        "id": 104267,
        "name": "Senovo",
        "latitude": "46.02361000",
        "longitude": "15.47694000"
      }
    ]
  },
  {
    "id": 4197,
    "country_id": 201,
    "name": "Kungota",
    "state_code": "055",
    "latitude": "46.64187930",
    "longitude": "15.60362880",
    "cities": [
      {
        "id": 104328,
        "name": "Zgornja Kungota",
        "latitude": "46.63917000",
        "longitude": "15.61556000"
      }
    ]
  },
  {
    "id": 4211,
    "country_id": 201,
    "name": "Kuzma",
    "state_code": "056",
    "latitude": "46.83510380",
    "longitude": "16.08071000",
    "cities": [
      {
        "id": 104156,
        "name": "Kuzma",
        "latitude": "46.83694000",
        "longitude": "16.08333000"
      }
    ]
  },
  {
    "id": 4338,
    "country_id": 201,
    "name": "Laško",
    "state_code": "057",
    "latitude": "46.15422360",
    "longitude": "15.23614910",
    "cities": [
      {
        "id": 104158,
        "name": "Laško",
        "latitude": "46.15463000",
        "longitude": "15.23555000"
      }
    ]
  },
  {
    "id": 4142,
    "country_id": 201,
    "name": "Lenart",
    "state_code": "058",
    "latitude": "46.58344240",
    "longitude": "15.82621250",
    "cities": [
      {
        "id": 104160,
        "name": "Lenart v Slov. Goricah",
        "latitude": "46.57611000",
        "longitude": "15.83139000"
      }
    ]
  },
  {
    "id": 4225,
    "country_id": 201,
    "name": "Lendava",
    "state_code": "059",
    "latitude": "46.55134830",
    "longitude": "16.44198390",
    "cities": [
      {
        "id": 104161,
        "name": "Lendava",
        "latitude": "46.56494000",
        "longitude": "16.45091000"
      }
    ]
  },
  {
    "id": 4347,
    "country_id": 201,
    "name": "Litija",
    "state_code": "060",
    "latitude": "46.05732260",
    "longitude": "14.83096360",
    "cities": [
      {
        "id": 104167,
        "name": "Litija",
        "latitude": "46.05861000",
        "longitude": "14.82250000"
      }
    ]
  },
  {
    "id": 4270,
    "country_id": 201,
    "name": "Ljubljana",
    "state_code": "061",
    "latitude": "46.05694650",
    "longitude": "14.50575150",
    "cities": [
      {
        "id": 104101,
        "name": "Dravlje District",
        "latitude": "46.07290000",
        "longitude": "14.44741000"
      },
      {
        "id": 104129,
        "name": "Jarše District",
        "latitude": "46.07345000",
        "longitude": "14.55431000"
      },
      {
        "id": 104169,
        "name": "Ljubljana",
        "latitude": "46.05108000",
        "longitude": "14.50513000"
      },
      {
        "id": 104211,
        "name": "Opčina Ljubljana-Bežigrad",
        "latitude": "46.08333000",
        "longitude": "14.53333000"
      },
      {
        "id": 104212,
        "name": "Opština Ljubljana-Center",
        "latitude": "46.05000000",
        "longitude": "14.53333000"
      },
      {
        "id": 104213,
        "name": "Opština Ljubljana-Moste-Polje",
        "latitude": "46.06667000",
        "longitude": "14.61667000"
      },
      {
        "id": 104262,
        "name": "Rožnik District",
        "latitude": "46.05999000",
        "longitude": "14.46779000"
      },
      {
        "id": 104349,
        "name": "Šentvid District",
        "latitude": "46.10559000",
        "longitude": "14.43329000"
      },
      {
        "id": 104278,
        "name": "Sostro District",
        "latitude": "46.04341000",
        "longitude": "14.67293000"
      },
      {
        "id": 104300,
        "name": "Trnovo District",
        "latitude": "46.02412000",
        "longitude": "14.48891000"
      },
      {
        "id": 104315,
        "name": "Vič District",
        "latitude": "46.00779000",
        "longitude": "14.46968000"
      }
    ]
  },
  {
    "id": 4294,
    "country_id": 201,
    "name": "Ljubno",
    "state_code": "062",
    "latitude": "46.34431250",
    "longitude": "14.83354920",
    "cities": [
      {
        "id": 104170,
        "name": "Ljubno ob Savinji",
        "latitude": "46.34358000",
        "longitude": "14.83377000"
      }
    ]
  },
  {
    "id": 4351,
    "country_id": 201,
    "name": "Ljutomer",
    "state_code": "063",
    "latitude": "46.51908480",
    "longitude": "16.18932160",
    "cities": [
      {
        "id": 104171,
        "name": "Ljutomer",
        "latitude": "46.52083000",
        "longitude": "16.19750000"
      }
    ]
  },
  {
    "id": 4306,
    "country_id": 201,
    "name": "Log–Dragomer",
    "state_code": "208",
    "latitude": "46.01787470",
    "longitude": "14.36877670"
  },
  {
    "id": 4350,
    "country_id": 201,
    "name": "Logatec",
    "state_code": "064",
    "latitude": "45.91761100",
    "longitude": "14.23514510",
    "cities": [
      {
        "id": 104173,
        "name": "Logatec",
        "latitude": "45.91444000",
        "longitude": "14.22583000"
      }
    ]
  },
  {
    "id": 4174,
    "country_id": 201,
    "name": "Loška Dolina",
    "state_code": "065",
    "latitude": "45.64779080",
    "longitude": "14.49731470",
    "cities": [
      {
        "id": 104163,
        "name": "Leskova Dolina",
        "latitude": "45.62139000",
        "longitude": "14.46056000"
      }
    ]
  },
  {
    "id": 4158,
    "country_id": 201,
    "name": "Loški Potok",
    "state_code": "066",
    "latitude": "45.69096370",
    "longitude": "14.59859700",
    "cities": [
      {
        "id": 104119,
        "name": "Hrib-Loški Potok",
        "latitude": "45.70688000",
        "longitude": "14.61674000"
      }
    ]
  },
  {
    "id": 4156,
    "country_id": 201,
    "name": "Lovrenc na Pohorju",
    "state_code": "167",
    "latitude": "46.54196380",
    "longitude": "15.40004430",
    "cities": [
      {
        "id": 104175,
        "name": "Lovrenc na Pohorju",
        "latitude": "46.54056000",
        "longitude": "15.39306000"
      }
    ]
  },
  {
    "id": 4219,
    "country_id": 201,
    "name": "Luče",
    "state_code": "067",
    "latitude": "46.35449250",
    "longitude": "14.74715040",
    "cities": [
      {
        "id": 104178,
        "name": "Luče",
        "latitude": "46.35611000",
        "longitude": "14.74667000"
      }
    ]
  },
  {
    "id": 4302,
    "country_id": 201,
    "name": "Lukovica",
    "state_code": "068",
    "latitude": "46.16962930",
    "longitude": "14.69072590",
    "cities": [
      {
        "id": 104177,
        "name": "Lukovica pri Domžalah",
        "latitude": "46.16988000",
        "longitude": "14.69179000"
      }
    ]
  },
  {
    "id": 4157,
    "country_id": 201,
    "name": "Majšperk",
    "state_code": "069",
    "latitude": "46.35030190",
    "longitude": "15.73405950",
    "cities": [
      {
        "id": 104179,
        "name": "Majšperk",
        "latitude": "46.35167000",
        "longitude": "15.73361000"
      }
    ]
  },
  {
    "id": 4224,
    "country_id": 201,
    "name": "Makole",
    "state_code": "198",
    "latitude": "46.31686970",
    "longitude": "15.66641260"
  },
  {
    "id": 4242,
    "country_id": 201,
    "name": "Maribor",
    "state_code": "070",
    "latitude": "46.55064960",
    "longitude": "15.62054390",
    "cities": [
      {
        "id": 104074,
        "name": "Bresternica",
        "latitude": "46.56972000",
        "longitude": "15.57500000"
      },
      {
        "id": 104132,
        "name": "Kamnica",
        "latitude": "46.57444000",
        "longitude": "15.61417000"
      },
      {
        "id": 104165,
        "name": "Limbuš",
        "latitude": "46.55361000",
        "longitude": "15.58361000"
      },
      {
        "id": 104181,
        "name": "Maribor",
        "latitude": "46.55472000",
        "longitude": "15.64667000"
      },
      {
        "id": 104219,
        "name": "Pekre",
        "latitude": "46.54722000",
        "longitude": "15.59556000"
      },
      {
        "id": 104251,
        "name": "Razvanje",
        "latitude": "46.51444000",
        "longitude": "15.63611000"
      }
    ]
  },
  {
    "id": 4244,
    "country_id": 201,
    "name": "Markovci",
    "state_code": "168",
    "latitude": "46.38793090",
    "longitude": "15.95860140",
    "cities": [
      {
        "id": 104182,
        "name": "Markovci",
        "latitude": "46.39557000",
        "longitude": "15.92831000"
      }
    ]
  },
  {
    "id": 4349,
    "country_id": 201,
    "name": "Medvode",
    "state_code": "071",
    "latitude": "46.14190800",
    "longitude": "14.40325960",
    "cities": [
      {
        "id": 104183,
        "name": "Medvode",
        "latitude": "46.14220000",
        "longitude": "14.41114000"
      },
      {
        "id": 104215,
        "name": "Opština [historical] Ljubljana-Šiška",
        "latitude": "46.16667000",
        "longitude": "14.43333000"
      },
      {
        "id": 104333,
        "name": "Zgornje Pirniče",
        "latitude": "46.14251000",
        "longitude": "14.43158000"
      }
    ]
  },
  {
    "id": 4348,
    "country_id": 201,
    "name": "Mengeš",
    "state_code": "072",
    "latitude": "46.16591220",
    "longitude": "14.57196940",
    "cities": [
      {
        "id": 104185,
        "name": "Mengeš",
        "latitude": "46.16694000",
        "longitude": "14.57500000"
      },
      {
        "id": 104235,
        "name": "Preserje pri Radomljah",
        "latitude": "46.16911000",
        "longitude": "14.59698000"
      }
    ]
  },
  {
    "id": 4323,
    "country_id": 201,
    "name": "Metlika",
    "state_code": "073",
    "latitude": "45.64807150",
    "longitude": "15.31778380",
    "cities": [
      {
        "id": 104186,
        "name": "Metlika",
        "latitude": "45.64722000",
        "longitude": "15.31417000"
      }
    ]
  },
  {
    "id": 4265,
    "country_id": 201,
    "name": "Mežica",
    "state_code": "074",
    "latitude": "46.52150270",
    "longitude": "14.85213400",
    "cities": [
      {
        "id": 104187,
        "name": "Mežica",
        "latitude": "46.52139000",
        "longitude": "14.85444000"
      }
    ]
  },
  {
    "id": 4223,
    "country_id": 201,
    "name": "Miklavž na Dravskem Polju",
    "state_code": "169",
    "latitude": "46.50826280",
    "longitude": "15.69520650",
    "cities": [
      {
        "id": 104188,
        "name": "Miklavž na Dravskem Polju",
        "latitude": "46.50583000",
        "longitude": "15.69722000"
      }
    ]
  },
  {
    "id": 4220,
    "country_id": 201,
    "name": "Miren–Kostanjevica",
    "state_code": "075",
    "latitude": "45.84360290",
    "longitude": "13.62766470",
    "cities": [
      {
        "id": 104065,
        "name": "Bilje",
        "latitude": "45.89444000",
        "longitude": "13.63222000"
      },
      {
        "id": 104189,
        "name": "Miren",
        "latitude": "45.89556000",
        "longitude": "13.60750000"
      }
    ]
  },
  {
    "id": 4298,
    "country_id": 201,
    "name": "Mirna",
    "state_code": "212",
    "latitude": "45.95156470",
    "longitude": "15.06209770"
  },
  {
    "id": 4237,
    "country_id": 201,
    "name": "Mirna Peč",
    "state_code": "170",
    "latitude": "45.84815740",
    "longitude": "15.08794500",
    "cities": [
      {
        "id": 104191,
        "name": "Mirna Peč",
        "latitude": "45.86028000",
        "longitude": "15.08333000"
      }
    ]
  },
  {
    "id": 4212,
    "country_id": 201,
    "name": "Mislinja",
    "state_code": "076",
    "latitude": "46.44294030",
    "longitude": "15.19876780",
    "cities": [
      {
        "id": 104192,
        "name": "Mislinja",
        "latitude": "46.44141000",
        "longitude": "15.20027000"
      }
    ]
  },
  {
    "id": 4297,
    "country_id": 201,
    "name": "Mokronog–Trebelno",
    "state_code": "199",
    "latitude": "45.90885290",
    "longitude": "15.15967360"
  },
  {
    "id": 4168,
    "country_id": 201,
    "name": "Moravče",
    "state_code": "077",
    "latitude": "46.13627810",
    "longitude": "14.74600100",
    "cities": [
      {
        "id": 104197,
        "name": "Moravče",
        "latitude": "46.13694000",
        "longitude": "14.74500000"
      }
    ]
  },
  {
    "id": 4218,
    "country_id": 201,
    "name": "Moravske Toplice",
    "state_code": "078",
    "latitude": "46.68569320",
    "longitude": "16.22245820",
    "cities": [
      {
        "id": 104196,
        "name": "Moravske Toplice",
        "latitude": "46.68313000",
        "longitude": "16.22080000"
      }
    ]
  },
  {
    "id": 4190,
    "country_id": 201,
    "name": "Mozirje",
    "state_code": "079",
    "latitude": "46.33943500",
    "longitude": "14.96024130",
    "cities": [
      {
        "id": 104200,
        "name": "Mozirje",
        "latitude": "46.33944000",
        "longitude": "14.96333000"
      }
    ]
  },
  {
    "id": 4313,
    "country_id": 201,
    "name": "Murska Sobota",
    "state_code": "080",
    "latitude": "46.64321470",
    "longitude": "16.15157540",
    "cities": [
      {
        "id": 104062,
        "name": "Bakovci",
        "latitude": "46.61889000",
        "longitude": "16.15028000"
      },
      {
        "id": 104336,
        "name": "Černelavci",
        "latitude": "46.66667000",
        "longitude": "16.13333000"
      },
      {
        "id": 104153,
        "name": "Krog",
        "latitude": "46.63806000",
        "longitude": "16.14139000"
      },
      {
        "id": 104201,
        "name": "Murska Sobota",
        "latitude": "46.66250000",
        "longitude": "16.16639000"
      },
      {
        "id": 104247,
        "name": "Rakičan",
        "latitude": "46.65167000",
        "longitude": "16.20417000"
      }
    ]
  },
  {
    "id": 4208,
    "country_id": 201,
    "name": "Muta",
    "state_code": "081",
    "latitude": "46.60973660",
    "longitude": "15.16299950",
    "cities": [
      {
        "id": 104202,
        "name": "Muta",
        "latitude": "46.61139000",
        "longitude": "15.16611000"
      }
    ]
  },
  {
    "id": 4177,
    "country_id": 201,
    "name": "Naklo",
    "state_code": "082",
    "latitude": "46.27186630",
    "longitude": "14.31569320",
    "cities": [
      {
        "id": 104203,
        "name": "Naklo",
        "latitude": "46.27278000",
        "longitude": "14.31722000"
      }
    ]
  },
  {
    "id": 4329,
    "country_id": 201,
    "name": "Nazarje",
    "state_code": "083",
    "latitude": "46.28217410",
    "longitude": "14.92256290",
    "cities": [
      {
        "id": 104204,
        "name": "Nazarje",
        "latitude": "46.31757000",
        "longitude": "14.94674000"
      }
    ]
  },
  {
    "id": 4205,
    "country_id": 201,
    "name": "Nova Gorica",
    "state_code": "084",
    "latitude": "45.97627600",
    "longitude": "13.73088810",
    "cities": [
      {
        "id": 104154,
        "name": "Kromberk",
        "latitude": "45.96083000",
        "longitude": "13.66556000"
      },
      {
        "id": 104206,
        "name": "Nova Gorica",
        "latitude": "45.95604000",
        "longitude": "13.64837000"
      },
      {
        "id": 104237,
        "name": "Prvačina",
        "latitude": "45.89000000",
        "longitude": "13.71806000"
      },
      {
        "id": 104342,
        "name": "Šempas",
        "latitude": "45.93028000",
        "longitude": "13.74361000"
      },
      {
        "id": 104276,
        "name": "Solkan",
        "latitude": "45.97139000",
        "longitude": "13.64944000"
      }
    ]
  },
  {
    "id": 4236,
    "country_id": 201,
    "name": "Novo Mesto",
    "state_code": "085",
    "latitude": "45.80108240",
    "longitude": "15.17100890",
    "cities": [
      {
        "id": 104208,
        "name": "Novo Mesto",
        "latitude": "45.80397000",
        "longitude": "15.16886000"
      }
    ]
  },
  {
    "id": 4320,
    "country_id": 201,
    "name": "Odranci",
    "state_code": "086",
    "latitude": "46.59010170",
    "longitude": "16.27881650",
    "cities": [
      {
        "id": 104209,
        "name": "Odranci",
        "latitude": "46.58667000",
        "longitude": "16.28028000"
      }
    ]
  },
  {
    "id": 4143,
    "country_id": 201,
    "name": "Oplotnica",
    "state_code": "171",
    "latitude": "46.38716300",
    "longitude": "15.44581310",
    "cities": [
      {
        "id": 104210,
        "name": "Oplotnica",
        "latitude": "46.38778000",
        "longitude": "15.44667000"
      }
    ]
  },
  {
    "id": 4221,
    "country_id": 201,
    "name": "Ormož",
    "state_code": "087",
    "latitude": "46.43533330",
    "longitude": "16.15437400",
    "cities": [
      {
        "id": 104216,
        "name": "Ormož",
        "latitude": "46.41139000",
        "longitude": "16.15444000"
      }
    ]
  },
  {
    "id": 4199,
    "country_id": 201,
    "name": "Osilnica",
    "state_code": "088",
    "latitude": "45.54184670",
    "longitude": "14.71563030",
    "cities": [
      {
        "id": 104217,
        "name": "Osilnica",
        "latitude": "45.52914000",
        "longitude": "14.69838000"
      }
    ]
  },
  {
    "id": 4172,
    "country_id": 201,
    "name": "Pesnica",
    "state_code": "089",
    "latitude": "46.60887550",
    "longitude": "15.67570510",
    "cities": [
      {
        "id": 104220,
        "name": "Pesnica pri Mariboru",
        "latitude": "46.60694000",
        "longitude": "15.67667000"
      }
    ]
  },
  {
    "id": 4201,
    "country_id": 201,
    "name": "Piran",
    "state_code": "090",
    "latitude": "45.52888560",
    "longitude": "13.56807350",
    "cities": [
      {
        "id": 104176,
        "name": "Lucija",
        "latitude": "45.50526000",
        "longitude": "13.60240000"
      },
      {
        "id": 104221,
        "name": "Piran",
        "latitude": "45.52778000",
        "longitude": "13.57056000"
      },
      {
        "id": 104229,
        "name": "Portorož",
        "latitude": "45.51429000",
        "longitude": "13.59206000"
      },
      {
        "id": 104269,
        "name": "Seča",
        "latitude": "45.49584000",
        "longitude": "13.61466000"
      }
    ]
  },
  {
    "id": 4184,
    "country_id": 201,
    "name": "Pivka",
    "state_code": "091",
    "latitude": "45.67892960",
    "longitude": "14.25426890",
    "cities": [
      {
        "id": 104222,
        "name": "Pivka",
        "latitude": "45.68292000",
        "longitude": "14.19588000"
      }
    ]
  },
  {
    "id": 4146,
    "country_id": 201,
    "name": "Podčetrtek",
    "state_code": "092",
    "latitude": "46.17395420",
    "longitude": "15.60138160",
    "cities": [
      {
        "id": 104226,
        "name": "Podčetrtek",
        "latitude": "46.15694000",
        "longitude": "15.59861000"
      }
    ]
  },
  {
    "id": 4161,
    "country_id": 201,
    "name": "Podlehnik",
    "state_code": "172",
    "latitude": "46.33107820",
    "longitude": "15.87858360",
    "cities": [
      {
        "id": 104224,
        "name": "Podlehnik",
        "latitude": "46.33528000",
        "longitude": "15.88000000"
      }
    ]
  },
  {
    "id": 4234,
    "country_id": 201,
    "name": "Podvelka",
    "state_code": "093",
    "latitude": "46.62219520",
    "longitude": "15.38899220",
    "cities": [
      {
        "id": 104225,
        "name": "Podvelka",
        "latitude": "46.58694000",
        "longitude": "15.33056000"
      }
    ]
  },
  {
    "id": 4239,
    "country_id": 201,
    "name": "Poljčane",
    "state_code": "200",
    "latitude": "46.31398530",
    "longitude": "15.57847910"
  },
  {
    "id": 4272,
    "country_id": 201,
    "name": "Polzela",
    "state_code": "173",
    "latitude": "46.28089700",
    "longitude": "15.07373210",
    "cities": [
      {
        "id": 104228,
        "name": "Polzela",
        "latitude": "46.28333000",
        "longitude": "15.06667000"
      }
    ]
  },
  {
    "id": 4330,
    "country_id": 201,
    "name": "Postojna",
    "state_code": "094",
    "latitude": "45.77493900",
    "longitude": "14.21342630",
    "cities": [
      {
        "id": 104230,
        "name": "Postojna",
        "latitude": "45.77435000",
        "longitude": "14.21528000"
      }
    ]
  },
  {
    "id": 4188,
    "country_id": 201,
    "name": "Prebold",
    "state_code": "174",
    "latitude": "46.23591360",
    "longitude": "15.09369120",
    "cities": [
      {
        "id": 104233,
        "name": "Prebold",
        "latitude": "46.23694000",
        "longitude": "15.09250000"
      }
    ]
  },
  {
    "id": 4303,
    "country_id": 201,
    "name": "Preddvor",
    "state_code": "095",
    "latitude": "46.30171390",
    "longitude": "14.42181650",
    "cities": [
      {
        "id": 104234,
        "name": "Preddvor",
        "latitude": "46.30250000",
        "longitude": "14.42306000"
      }
    ]
  },
  {
    "id": 4274,
    "country_id": 201,
    "name": "Prevalje",
    "state_code": "175",
    "latitude": "46.56211460",
    "longitude": "14.88478610",
    "cities": [
      {
        "id": 104236,
        "name": "Prevalje",
        "latitude": "46.54694000",
        "longitude": "14.92083000"
      }
    ]
  },
  {
    "id": 4228,
    "country_id": 201,
    "name": "Ptuj",
    "state_code": "096",
    "latitude": "46.41995350",
    "longitude": "15.86968840",
    "cities": [
      {
        "id": 104238,
        "name": "Ptuj",
        "latitude": "46.42005000",
        "longitude": "15.87018000"
      }
    ]
  },
  {
    "id": 4288,
    "country_id": 201,
    "name": "Puconci",
    "state_code": "097",
    "latitude": "46.72004180",
    "longitude": "16.09977920",
    "cities": [
      {
        "id": 104239,
        "name": "Puconci",
        "latitude": "46.70667000",
        "longitude": "16.15639000"
      }
    ]
  },
  {
    "id": 4204,
    "country_id": 201,
    "name": "Rače–Fram",
    "state_code": "098",
    "latitude": "46.45420830",
    "longitude": "15.63294670",
    "cities": [
      {
        "id": 104103,
        "name": "Fram",
        "latitude": "46.45600000",
        "longitude": "15.63007000"
      },
      {
        "id": 104198,
        "name": "Morje",
        "latitude": "46.44444000",
        "longitude": "15.62139000"
      },
      {
        "id": 104252,
        "name": "Rače",
        "latitude": "46.45194000",
        "longitude": "15.68139000"
      }
    ]
  },
  {
    "id": 4195,
    "country_id": 201,
    "name": "Radeče",
    "state_code": "099",
    "latitude": "46.06669540",
    "longitude": "15.18204380",
    "cities": [
      {
        "id": 104241,
        "name": "Radeče",
        "latitude": "46.06806000",
        "longitude": "15.18389000"
      }
    ]
  },
  {
    "id": 4292,
    "country_id": 201,
    "name": "Radenci",
    "state_code": "100",
    "latitude": "46.62311210",
    "longitude": "16.05069030",
    "cities": [
      {
        "id": 104240,
        "name": "Radenci",
        "latitude": "46.64201000",
        "longitude": "16.03781000"
      }
    ]
  },
  {
    "id": 4275,
    "country_id": 201,
    "name": "Radlje ob Dravi",
    "state_code": "101",
    "latitude": "46.61357320",
    "longitude": "15.23544380",
    "cities": [
      {
        "id": 104243,
        "name": "Radlje ob Dravi",
        "latitude": "46.61417000",
        "longitude": "15.22639000"
      }
    ]
  },
  {
    "id": 4231,
    "country_id": 201,
    "name": "Radovljica",
    "state_code": "102",
    "latitude": "46.33558270",
    "longitude": "14.20945340",
    "cities": [
      {
        "id": 104162,
        "name": "Lesce",
        "latitude": "46.36111000",
        "longitude": "14.15778000"
      },
      {
        "id": 104245,
        "name": "Radovljica",
        "latitude": "46.34444000",
        "longitude": "14.17444000"
      }
    ]
  },
  {
    "id": 4155,
    "country_id": 201,
    "name": "Ravne na Koroškem",
    "state_code": "103",
    "latitude": "46.55211940",
    "longitude": "14.95990840",
    "cities": [
      {
        "id": 104146,
        "name": "Kotlje",
        "latitude": "46.52139000",
        "longitude": "14.98694000"
      },
      {
        "id": 104249,
        "name": "Ravne na Koroškem",
        "latitude": "46.54306000",
        "longitude": "14.96917000"
      }
    ]
  },
  {
    "id": 4206,
    "country_id": 201,
    "name": "Razkrižje",
    "state_code": "176",
    "latitude": "46.52263390",
    "longitude": "16.26686380",
    "cities": [
      {
        "id": 104250,
        "name": "Razkrižje",
        "latitude": "46.52167000",
        "longitude": "16.28111000"
      }
    ]
  },
  {
    "id": 4160,
    "country_id": 201,
    "name": "Rečica ob Savinji",
    "state_code": "209",
    "latitude": "46.32337900",
    "longitude": "14.92236700"
  },
  {
    "id": 4253,
    "country_id": 201,
    "name": "Renče–Vogrsko",
    "state_code": "201",
    "latitude": "45.89546170",
    "longitude": "13.67856730",
    "cities": [
      {
        "id": 104253,
        "name": "Renče",
        "latitude": "45.89000000",
        "longitude": "13.66861000"
      },
      {
        "id": 104319,
        "name": "Volčja Draga",
        "latitude": "45.90694000",
        "longitude": "13.67750000"
      }
    ]
  },
  {
    "id": 4235,
    "country_id": 201,
    "name": "Ribnica",
    "state_code": "104",
    "latitude": "45.74003030",
    "longitude": "14.72657820",
    "cities": [
      {
        "id": 104255,
        "name": "Ribnica",
        "latitude": "45.73861000",
        "longitude": "14.72750000"
      }
    ]
  },
  {
    "id": 4207,
    "country_id": 201,
    "name": "Ribnica na Pohorju",
    "state_code": "177",
    "latitude": "46.53561450",
    "longitude": "15.26745380",
    "cities": [
      {
        "id": 104256,
        "name": "Ribnica na Pohorju",
        "latitude": "46.53500000",
        "longitude": "15.27278000"
      }
    ]
  },
  {
    "id": 4233,
    "country_id": 201,
    "name": "Rogaška Slatina",
    "state_code": "106",
    "latitude": "46.24539730",
    "longitude": "15.62650140",
    "cities": [
      {
        "id": 104258,
        "name": "Rogaška Slatina",
        "latitude": "46.23750000",
        "longitude": "15.63972000"
      }
    ]
  },
  {
    "id": 4264,
    "country_id": 201,
    "name": "Rogašovci",
    "state_code": "105",
    "latitude": "46.80557850",
    "longitude": "16.03452370",
    "cities": [
      {
        "id": 104259,
        "name": "Rogašovci",
        "latitude": "46.80000000",
        "longitude": "16.03333000"
      }
    ]
  },
  {
    "id": 4209,
    "country_id": 201,
    "name": "Rogatec",
    "state_code": "107",
    "latitude": "46.22866260",
    "longitude": "15.69913380",
    "cities": [
      {
        "id": 104257,
        "name": "Rogatec",
        "latitude": "46.22944000",
        "longitude": "15.70028000"
      }
    ]
  },
  {
    "id": 4280,
    "country_id": 201,
    "name": "Ruše",
    "state_code": "108",
    "latitude": "46.52062650",
    "longitude": "15.48178690",
    "cities": [
      {
        "id": 104066,
        "name": "Bistrica ob Dravi",
        "latitude": "46.55419000",
        "longitude": "15.54855000"
      },
      {
        "id": 104263,
        "name": "Ruše",
        "latitude": "46.53944000",
        "longitude": "15.51583000"
      }
    ]
  },
  {
    "id": 4222,
    "country_id": 201,
    "name": "Šalovci",
    "state_code": "033",
    "latitude": "46.85335680",
    "longitude": "16.25917910",
    "cities": [
      {
        "id": 104341,
        "name": "Šalovci",
        "latitude": "46.82500000",
        "longitude": "16.29806000"
      }
    ]
  },
  {
    "id": 4230,
    "country_id": 201,
    "name": "Selnica ob Dravi",
    "state_code": "178",
    "latitude": "46.55139180",
    "longitude": "15.49294100",
    "cities": [
      {
        "id": 104264,
        "name": "Selnica ob Dravi",
        "latitude": "46.55000000",
        "longitude": "15.49500000"
      }
    ]
  },
  {
    "id": 4346,
    "country_id": 201,
    "name": "Semič",
    "state_code": "109",
    "latitude": "45.65205340",
    "longitude": "15.18207010",
    "cities": [
      {
        "id": 104266,
        "name": "Semič",
        "latitude": "45.64611000",
        "longitude": "15.18222000"
      }
    ]
  },
  {
    "id": 4317,
    "country_id": 201,
    "name": "Šempeter–Vrtojba",
    "state_code": "183",
    "latitude": "45.92900950",
    "longitude": "13.64155940",
    "cities": [
      {
        "id": 104261,
        "name": "Rožna Dolina",
        "latitude": "45.94194000",
        "longitude": "13.66779000"
      },
      {
        "id": 104343,
        "name": "Šempeter pri Gorici",
        "latitude": "45.92750000",
        "longitude": "13.64111000"
      },
      {
        "id": 104322,
        "name": "Vrtojba",
        "latitude": "45.91250000",
        "longitude": "13.63417000"
      }
    ]
  },
  {
    "id": 4299,
    "country_id": 201,
    "name": "Šenčur",
    "state_code": "117",
    "latitude": "46.24336990",
    "longitude": "14.41922230",
    "cities": [
      {
        "id": 104117,
        "name": "Hrastje",
        "latitude": "46.21667000",
        "longitude": "14.40000000"
      },
      {
        "id": 104351,
        "name": "Šenčur",
        "latitude": "46.24556000",
        "longitude": "14.41972000"
      }
    ]
  },
  {
    "id": 4324,
    "country_id": 201,
    "name": "Šentilj",
    "state_code": "118",
    "latitude": "46.68628390",
    "longitude": "15.71035670",
    "cities": [
      {
        "id": 104265,
        "name": "Selnica ob Muri",
        "latitude": "46.68333000",
        "longitude": "15.70000000"
      },
      {
        "id": 104345,
        "name": "Šentilj v Slov. Goricah",
        "latitude": "46.68167000",
        "longitude": "15.64806000"
      }
    ]
  },
  {
    "id": 4241,
    "country_id": 201,
    "name": "Šentjernej",
    "state_code": "119",
    "latitude": "45.84341300",
    "longitude": "15.33783120",
    "cities": [
      {
        "id": 104346,
        "name": "Šentjernej",
        "latitude": "45.84000000",
        "longitude": "15.33611000"
      }
    ]
  },
  {
    "id": 4171,
    "country_id": 201,
    "name": "Šentjur",
    "state_code": "120",
    "latitude": "46.26543390",
    "longitude": "15.40800000",
    "cities": [
      {
        "id": 104347,
        "name": "Šentjur",
        "latitude": "46.21722000",
        "longitude": "15.39750000"
      }
    ]
  },
  {
    "id": 4311,
    "country_id": 201,
    "name": "Šentrupert",
    "state_code": "211",
    "latitude": "45.98731420",
    "longitude": "15.08297830",
    "cities": [
      {
        "id": 104348,
        "name": "Šentrupert",
        "latitude": "45.97778000",
        "longitude": "15.09556000"
      }
    ]
  },
  {
    "id": 4268,
    "country_id": 201,
    "name": "Sevnica",
    "state_code": "110",
    "latitude": "46.00703170",
    "longitude": "15.30456790",
    "cities": [
      {
        "id": 104268,
        "name": "Sevnica",
        "latitude": "46.00778000",
        "longitude": "15.31556000"
      }
    ]
  },
  {
    "id": 4149,
    "country_id": 201,
    "name": "Sežana",
    "state_code": "111",
    "latitude": "45.72751090",
    "longitude": "13.86619310",
    "cities": [
      {
        "id": 104270,
        "name": "Sežana",
        "latitude": "45.70924000",
        "longitude": "13.87333000"
      }
    ]
  },
  {
    "id": 4170,
    "country_id": 201,
    "name": "Škocjan",
    "state_code": "121",
    "latitude": "45.91754540",
    "longitude": "15.31017360",
    "cities": [
      {
        "id": 104352,
        "name": "Škocjan",
        "latitude": "45.90667000",
        "longitude": "15.29139000"
      }
    ]
  },
  {
    "id": 4316,
    "country_id": 201,
    "name": "Škofja Loka",
    "state_code": "122",
    "latitude": "46.14098440",
    "longitude": "14.28118730",
    "cities": [
      {
        "id": 104353,
        "name": "Škofja Loka",
        "latitude": "46.16551000",
        "longitude": "14.30626000"
      },
      {
        "id": 104289,
        "name": "Sv. Duh",
        "latitude": "46.18333000",
        "longitude": "14.33333000"
      }
    ]
  },
  {
    "id": 4187,
    "country_id": 201,
    "name": "Škofljica",
    "state_code": "123",
    "latitude": "45.98409620",
    "longitude": "14.57466260",
    "cities": [
      {
        "id": 104157,
        "name": "Lavrica",
        "latitude": "46.00002000",
        "longitude": "14.55730000"
      },
      {
        "id": 104354,
        "name": "Škofljica",
        "latitude": "45.98333000",
        "longitude": "14.57667000"
      }
    ]
  },
  {
    "id": 4169,
    "country_id": 201,
    "name": "Slovenj Gradec",
    "state_code": "112",
    "latitude": "46.48777180",
    "longitude": "15.07294780",
    "cities": [
      {
        "id": 104159,
        "name": "Legen",
        "latitude": "46.50651000",
        "longitude": "15.14424000"
      },
      {
        "id": 104218,
        "name": "Pameče",
        "latitude": "46.53417000",
        "longitude": "15.07917000"
      },
      {
        "id": 104271,
        "name": "Slovenj Gradec",
        "latitude": "46.51028000",
        "longitude": "15.08056000"
      },
      {
        "id": 104361,
        "name": "Šmartno pri Slovenj Gradcu",
        "latitude": "46.48944000",
        "longitude": "15.10667000"
      }
    ]
  },
  {
    "id": 4332,
    "country_id": 201,
    "name": "Slovenska Bistrica",
    "state_code": "113",
    "latitude": "46.39198130",
    "longitude": "15.57278690",
    "cities": [
      {
        "id": 104232,
        "name": "Pragersko",
        "latitude": "46.39667000",
        "longitude": "15.66000000"
      },
      {
        "id": 104272,
        "name": "Slovenska Bistrica",
        "latitude": "46.39278000",
        "longitude": "15.57444000"
      },
      {
        "id": 104329,
        "name": "Zgornja Polskava",
        "latitude": "46.42556000",
        "longitude": "15.61222000"
      }
    ]
  },
  {
    "id": 4198,
    "country_id": 201,
    "name": "Slovenske Konjice",
    "state_code": "114",
    "latitude": "46.33691910",
    "longitude": "15.42147080",
    "cities": [
      {
        "id": 104273,
        "name": "Slovenske Konjice",
        "latitude": "46.33667000",
        "longitude": "15.42583000"
      }
    ]
  },
  {
    "id": 4285,
    "country_id": 201,
    "name": "Šmarje pri Jelšah",
    "state_code": "124",
    "latitude": "46.22870250",
    "longitude": "15.51903530",
    "cities": [
      {
        "id": 104356,
        "name": "Šmarje pri Jelšah",
        "latitude": "46.22722000",
        "longitude": "15.51917000"
      }
    ]
  },
  {
    "id": 4289,
    "country_id": 201,
    "name": "Šmarješke Toplice",
    "state_code": "206",
    "latitude": "45.86803770",
    "longitude": "15.23474220",
    "cities": [
      {
        "id": 104358,
        "name": "Šmarjeta",
        "latitude": "45.88333000",
        "longitude": "15.25000000"
      }
    ]
  },
  {
    "id": 4296,
    "country_id": 201,
    "name": "Šmartno ob Paki",
    "state_code": "125",
    "latitude": "46.32903720",
    "longitude": "15.03339370",
    "cities": [
      {
        "id": 104359,
        "name": "Šmartno ob Paki",
        "latitude": "46.33333000",
        "longitude": "15.03333000"
      }
    ]
  },
  {
    "id": 4279,
    "country_id": 201,
    "name": "Šmartno pri Litiji",
    "state_code": "194",
    "latitude": "46.04549710",
    "longitude": "14.84101330",
    "cities": [
      {
        "id": 104360,
        "name": "Šmartno pri Litiji",
        "latitude": "46.04444000",
        "longitude": "14.84417000"
      }
    ]
  },
  {
    "id": 4277,
    "country_id": 201,
    "name": "Sodražica",
    "state_code": "179",
    "latitude": "45.76165650",
    "longitude": "14.63528530",
    "cities": [
      {
        "id": 104275,
        "name": "Sodražica",
        "latitude": "45.76111000",
        "longitude": "14.63556000"
      }
    ]
  },
  {
    "id": 4261,
    "country_id": 201,
    "name": "Solčava",
    "state_code": "180",
    "latitude": "46.40235260",
    "longitude": "14.68023040",
    "cities": [
      {
        "id": 104277,
        "name": "Solčava",
        "latitude": "46.41944000",
        "longitude": "14.69361000"
      }
    ]
  },
  {
    "id": 4248,
    "country_id": 201,
    "name": "Šoštanj",
    "state_code": "126",
    "latitude": "46.37828360",
    "longitude": "15.04613780",
    "cities": [
      {
        "id": 104248,
        "name": "Ravne",
        "latitude": "46.41413000",
        "longitude": "15.06087000"
      },
      {
        "id": 104362,
        "name": "Šoštanj",
        "latitude": "46.38000000",
        "longitude": "15.04861000"
      },
      {
        "id": 104296,
        "name": "Topolšica",
        "latitude": "46.40028000",
        "longitude": "15.02157000"
      }
    ]
  },
  {
    "id": 4263,
    "country_id": 201,
    "name": "Središče ob Dravi",
    "state_code": "202",
    "latitude": "46.39592820",
    "longitude": "16.27049150",
    "cities": [
      {
        "id": 104284,
        "name": "Središče ob Dravi",
        "latitude": "46.39417000",
        "longitude": "16.26806000"
      }
    ]
  },
  {
    "id": 4259,
    "country_id": 201,
    "name": "Starše",
    "state_code": "115",
    "latitude": "46.46743310",
    "longitude": "15.76405460",
    "cities": [
      {
        "id": 104285,
        "name": "Starše",
        "latitude": "46.46583000",
        "longitude": "15.76722000"
      }
    ]
  },
  {
    "id": 4185,
    "country_id": 201,
    "name": "Štore",
    "state_code": "127",
    "latitude": "46.22225140",
    "longitude": "15.31261160",
    "cities": [
      {
        "id": 104363,
        "name": "Štore",
        "latitude": "46.22083000",
        "longitude": "15.31389000"
      }
    ]
  },
  {
    "id": 4333,
    "country_id": 201,
    "name": "Straža",
    "state_code": "203",
    "latitude": "45.77684280",
    "longitude": "15.09486940",
    "cities": [
      {
        "id": 104286,
        "name": "Straža",
        "latitude": "45.78000000",
        "longitude": "15.07278000"
      }
    ]
  },
  {
    "id": 4164,
    "country_id": 201,
    "name": "Sveta Ana",
    "state_code": "181",
    "latitude": "46.65000000",
    "longitude": "15.84527800",
    "cities": [
      {
        "id": 104287,
        "name": "Sv. Ana v Slov. Goricah",
        "latitude": "46.64917000",
        "longitude": "15.84417000"
      }
    ]
  },
  {
    "id": 4260,
    "country_id": 201,
    "name": "Sveta Trojica v Slovenskih Goricah",
    "state_code": "204",
    "latitude": "46.56808090",
    "longitude": "15.88230640",
    "cities": [
      {
        "id": 104290,
        "name": "Sv. Trojica v Slov. Goricah",
        "latitude": "46.57667000",
        "longitude": "15.87694000"
      }
    ]
  },
  {
    "id": 4229,
    "country_id": 201,
    "name": "Sveti Andraž v Slovenskih Goricah",
    "state_code": "182",
    "latitude": "46.51897470",
    "longitude": "15.94982620",
    "cities": [
      {
        "id": 104314,
        "name": "Vitomarci",
        "latitude": "46.52750000",
        "longitude": "15.93944000"
      }
    ]
  },
  {
    "id": 4255,
    "country_id": 201,
    "name": "Sveti Jurij ob Ščavnici",
    "state_code": "116",
    "latitude": "46.56874520",
    "longitude": "16.02225280"
  },
  {
    "id": 4328,
    "country_id": 201,
    "name": "Sveti Jurij v Slovenskih Goricah",
    "state_code": "210",
    "latitude": "46.61707910",
    "longitude": "15.78046770",
    "cities": [
      {
        "id": 104291,
        "name": "Sveti Jurij ob Ščavnici",
        "latitude": "46.56950000",
        "longitude": "16.02347000"
      }
    ]
  },
  {
    "id": 4273,
    "country_id": 201,
    "name": "Sveti Tomaž",
    "state_code": "205",
    "latitude": "46.48352830",
    "longitude": "16.07944200",
    "cities": [
      {
        "id": 104292,
        "name": "Sveti Tomaž",
        "latitude": "46.48417000",
        "longitude": "16.08361000"
      }
    ]
  },
  {
    "id": 4194,
    "country_id": 201,
    "name": "Tabor",
    "state_code": "184",
    "latitude": "46.21079210",
    "longitude": "15.01742490",
    "cities": [
      {
        "id": 104293,
        "name": "Tabor",
        "latitude": "46.23611000",
        "longitude": "15.01833000"
      }
    ]
  },
  {
    "id": 4312,
    "country_id": 201,
    "name": "Tišina",
    "state_code": "010",
    "latitude": "46.65418840",
    "longitude": "16.07547810",
    "cities": [
      {
        "id": 104294,
        "name": "Tišina",
        "latitude": "46.65806000",
        "longitude": "16.09167000"
      }
    ]
  },
  {
    "id": 4247,
    "country_id": 201,
    "name": "Tolmin",
    "state_code": "128",
    "latitude": "46.18571880",
    "longitude": "13.73198380",
    "cities": [
      {
        "id": 104295,
        "name": "Tolmin",
        "latitude": "46.18304000",
        "longitude": "13.73321000"
      }
    ]
  },
  {
    "id": 4246,
    "country_id": 201,
    "name": "Trbovlje",
    "state_code": "129",
    "latitude": "46.15035630",
    "longitude": "15.04531370",
    "cities": [
      {
        "id": 104297,
        "name": "Trbovlje",
        "latitude": "46.15500000",
        "longitude": "15.05333000"
      }
    ]
  },
  {
    "id": 4214,
    "country_id": 201,
    "name": "Trebnje",
    "state_code": "130",
    "latitude": "45.90801630",
    "longitude": "15.01319050",
    "cities": [
      {
        "id": 104298,
        "name": "Trebnje",
        "latitude": "45.90417000",
        "longitude": "15.02167000"
      }
    ]
  },
  {
    "id": 4153,
    "country_id": 201,
    "name": "Trnovska Vas",
    "state_code": "185",
    "latitude": "46.52940350",
    "longitude": "15.88531180",
    "cities": [
      {
        "id": 104301,
        "name": "Trnovska Vas",
        "latitude": "46.52019000",
        "longitude": "15.88657000"
      }
    ]
  },
  {
    "id": 4250,
    "country_id": 201,
    "name": "Tržič",
    "state_code": "131",
    "latitude": "46.35935140",
    "longitude": "14.30066230",
    "cities": [
      {
        "id": 104068,
        "name": "Bistrica pri Tržiču",
        "latitude": "46.35472000",
        "longitude": "14.29167000"
      },
      {
        "id": 104303,
        "name": "Tržič",
        "latitude": "46.36357000",
        "longitude": "14.31046000"
      }
    ]
  },
  {
    "id": 4334,
    "country_id": 201,
    "name": "Trzin",
    "state_code": "186",
    "latitude": "46.12982410",
    "longitude": "14.55776370",
    "cities": [
      {
        "id": 104340,
        "name": "Črnuče District",
        "latitude": "46.11506000",
        "longitude": "14.55371000"
      },
      {
        "id": 104302,
        "name": "Trzin",
        "latitude": "46.13333000",
        "longitude": "14.56667000"
      }
    ]
  },
  {
    "id": 4251,
    "country_id": 201,
    "name": "Turnišče",
    "state_code": "132",
    "latitude": "46.61375040",
    "longitude": "16.32021000",
    "cities": [
      {
        "id": 104304,
        "name": "Turnišče",
        "latitude": "46.62778000",
        "longitude": "16.32028000"
      }
    ]
  },
  {
    "id": 4267,
    "country_id": 201,
    "name": "Velika Polana",
    "state_code": "187",
    "latitude": "46.57317150",
    "longitude": "16.34441260",
    "cities": [
      {
        "id": 104305,
        "name": "Velika Polana",
        "latitude": "46.57194000",
        "longitude": "16.34694000"
      }
    ]
  },
  {
    "id": 4144,
    "country_id": 201,
    "name": "Velike Lašče",
    "state_code": "134",
    "latitude": "45.83365910",
    "longitude": "14.63623630",
    "cities": [
      {
        "id": 104306,
        "name": "Velike Lašče",
        "latitude": "45.83222000",
        "longitude": "14.63639000"
      }
    ]
  },
  {
    "id": 4257,
    "country_id": 201,
    "name": "Veržej",
    "state_code": "188",
    "latitude": "46.58411350",
    "longitude": "16.16208000",
    "cities": [
      {
        "id": 104308,
        "name": "Veržej",
        "latitude": "46.58361000",
        "longitude": "16.16528000"
      }
    ]
  },
  {
    "id": 4300,
    "country_id": 201,
    "name": "Videm",
    "state_code": "135",
    "latitude": "46.36383300",
    "longitude": "15.87812120",
    "cities": [
      {
        "id": 104310,
        "name": "Videm pri Ptuju",
        "latitude": "46.36861000",
        "longitude": "15.90639000"
      }
    ]
  },
  {
    "id": 4196,
    "country_id": 201,
    "name": "Vipava",
    "state_code": "136",
    "latitude": "45.84126740",
    "longitude": "13.96096130",
    "cities": [
      {
        "id": 104311,
        "name": "Vipava",
        "latitude": "45.84667000",
        "longitude": "13.96306000"
      }
    ]
  },
  {
    "id": 4148,
    "country_id": 201,
    "name": "Vitanje",
    "state_code": "137",
    "latitude": "46.38153230",
    "longitude": "15.29506870",
    "cities": [
      {
        "id": 104313,
        "name": "Vitanje",
        "latitude": "46.38167000",
        "longitude": "15.29583000"
      }
    ]
  },
  {
    "id": 4154,
    "country_id": 201,
    "name": "Vodice",
    "state_code": "138",
    "latitude": "46.18966430",
    "longitude": "14.49385390",
    "cities": [
      {
        "id": 104317,
        "name": "Vodice",
        "latitude": "46.18987000",
        "longitude": "14.49492000"
      }
    ]
  },
  {
    "id": 4245,
    "country_id": 201,
    "name": "Vojnik",
    "state_code": "139",
    "latitude": "46.29205810",
    "longitude": "15.30205800",
    "cities": [
      {
        "id": 104318,
        "name": "Vojnik",
        "latitude": "46.29333000",
        "longitude": "15.30333000"
      }
    ]
  },
  {
    "id": 4163,
    "country_id": 201,
    "name": "Vransko",
    "state_code": "189",
    "latitude": "46.23900600",
    "longitude": "14.95272490",
    "cities": [
      {
        "id": 104320,
        "name": "Vransko",
        "latitude": "46.24389000",
        "longitude": "14.95139000"
      }
    ]
  },
  {
    "id": 4262,
    "country_id": 201,
    "name": "Vrhnika",
    "state_code": "140",
    "latitude": "45.95027190",
    "longitude": "14.32764220",
    "cities": [
      {
        "id": 104307,
        "name": "Verd",
        "latitude": "45.95667000",
        "longitude": "14.30583000"
      },
      {
        "id": 104321,
        "name": "Vrhnika",
        "latitude": "45.96350000",
        "longitude": "14.29484000"
      }
    ]
  },
  {
    "id": 4226,
    "country_id": 201,
    "name": "Vuzenica",
    "state_code": "141",
    "latitude": "46.59808360",
    "longitude": "15.16572370",
    "cities": [
      {
        "id": 104323,
        "name": "Vuzenica",
        "latitude": "46.59639000",
        "longitude": "15.16722000"
      }
    ]
  },
  {
    "id": 4269,
    "country_id": 201,
    "name": "Zagorje ob Savi",
    "state_code": "142",
    "latitude": "46.13452020",
    "longitude": "14.99643840",
    "cities": [
      {
        "id": 104126,
        "name": "Izlake",
        "latitude": "46.15000000",
        "longitude": "14.95000000"
      },
      {
        "id": 104136,
        "name": "Kisovec",
        "latitude": "46.13911000",
        "longitude": "14.96295000"
      },
      {
        "id": 104325,
        "name": "Zagorje ob Savi",
        "latitude": "46.13179000",
        "longitude": "14.99694000"
      }
    ]
  },
  {
    "id": 4258,
    "country_id": 201,
    "name": "Žalec",
    "state_code": "190",
    "latitude": "46.25197120",
    "longitude": "15.16500720",
    "cities": [
      {
        "id": 104111,
        "name": "Gotovlje",
        "latitude": "46.27418000",
        "longitude": "15.15186000"
      },
      {
        "id": 104344,
        "name": "Šempeter v Savinj. Dolini",
        "latitude": "46.25639000",
        "longitude": "15.12194000"
      },
      {
        "id": 104324,
        "name": "Zabukovica",
        "latitude": "46.21408000",
        "longitude": "15.15954000"
      },
      {
        "id": 104364,
        "name": "Žalec",
        "latitude": "46.25151000",
        "longitude": "15.16482000"
      }
    ]
  },
  {
    "id": 4182,
    "country_id": 201,
    "name": "Zavrč",
    "state_code": "143",
    "latitude": "46.35713000",
    "longitude": "16.04777470",
    "cities": [
      {
        "id": 104327,
        "name": "Zavrč",
        "latitude": "46.39167000",
        "longitude": "16.04972000"
      }
    ]
  },
  {
    "id": 4256,
    "country_id": 201,
    "name": "Železniki",
    "state_code": "146",
    "latitude": "46.22563770",
    "longitude": "14.16936170",
    "cities": [
      {
        "id": 104365,
        "name": "Železniki",
        "latitude": "46.22482000",
        "longitude": "14.17205000"
      }
    ]
  },
  {
    "id": 4249,
    "country_id": 201,
    "name": "Žetale",
    "state_code": "191",
    "latitude": "46.27428330",
    "longitude": "15.79133590",
    "cities": [
      {
        "id": 104366,
        "name": "Žetale",
        "latitude": "46.27356000",
        "longitude": "15.82658000"
      }
    ]
  },
  {
    "id": 4192,
    "country_id": 201,
    "name": "Žiri",
    "state_code": "147",
    "latitude": "46.04724990",
    "longitude": "14.10984510",
    "cities": [
      {
        "id": 104367,
        "name": "Žiri",
        "latitude": "46.04222000",
        "longitude": "14.10722000"
      }
    ]
  },
  {
    "id": 4276,
    "country_id": 201,
    "name": "Žirovnica",
    "state_code": "192",
    "latitude": "46.39544030",
    "longitude": "14.15396320",
    "cities": [
      {
        "id": 104368,
        "name": "Žirovnica",
        "latitude": "46.40472000",
        "longitude": "14.14000000"
      }
    ]
  },
  {
    "id": 4342,
    "country_id": 201,
    "name": "Zreče",
    "state_code": "144",
    "latitude": "46.41777860",
    "longitude": "15.37094310",
    "cities": [
      {
        "id": 104335,
        "name": "Zreče",
        "latitude": "46.38222000",
        "longitude": "15.37917000"
      }
    ]
  },
  {
    "id": 4307,
    "country_id": 201,
    "name": "Žužemberk",
    "state_code": "193",
    "latitude": "45.82003500",
    "longitude": "14.95359190",
    "cities": [
      {
        "id": 104369,
        "name": "Žužemberk",
        "latitude": "45.83389000",
        "longitude": "14.92917000"
      }
    ]
  }
]