[
  {
    "id": 4775,
    "country_id": 237,
    "name": "Malampa",
    "state_code": "MAP",
    "latitude": "-16.40114050",
    "longitude": "167.60778650",
    "cities": [
      {
        "id": 130637,
        "name": "Lakatoro",
        "latitude": "-16.09992000",
        "longitude": "167.41636000"
      },
      {
        "id": 130639,
        "name": "Norsup",
        "latitude": "-16.06536000",
        "longitude": "167.39714000"
      }
    ]
  },
  {
    "id": 4773,
    "country_id": 237,
    "name": "Penama",
    "state_code": "PAM",
    "latitude": "-15.37957580",
    "longitude": "167.90531820"
  },
  {
    "id": 4776,
    "country_id": 237,
    "name": "Sanma",
    "state_code": "SAM",
    "latitude": "-15.48400170",
    "longitude": "166.91820970",
    "cities": [
      {
        "id": 130638,
        "name": "Luganville",
        "latitude": "-15.51989000",
        "longitude": "167.16235000"
      },
      {
        "id": 130640,
        "name": "Port-Olry",
        "latitude": "-15.04175000",
        "longitude": "167.07265000"
      }
    ]
  },
  {
    "id": 4774,
    "country_id": 237,
    "name": "Shefa",
    "state_code": "SEE",
    "latitude": "32.80576500",
    "longitude": "35.16997100",
    "cities": [
      {
        "id": 130641,
        "name": "Port-Vila",
        "latitude": "-17.73648000",
        "longitude": "168.31366000"
      }
    ]
  },
  {
    "id": 4777,
    "country_id": 237,
    "name": "Tafea",
    "state_code": "TAE",
    "latitude": "-18.72378270",
    "longitude": "169.06450560",
    "cities": [
      {
        "id": 130636,
        "name": "Isangel",
        "latitude": "-19.54167000",
        "longitude": "169.28167000"
      }
    ]
  },
  {
    "id": 4772,
    "country_id": 237,
    "name": "Torba",
    "state_code": "TOB",
    "latitude": "37.07653000",
    "longitude": "27.45657300",
    "cities": [
      {
        "id": 130642,
        "name": "Sola",
        "latitude": "-13.87611000",
        "longitude": "167.55167000"
      }
    ]
  }
]