[
  {
    "id": 2933,
    "country_id": 60,
    "name": "Ali Sabieh",
    "state_code": "AS",
    "latitude": "11.19289730",
    "longitude": "42.94169800",
    "cities": [
      {
        "id": 30561,
        "name": "'Ali Sabieh",
        "latitude": "11.15583000",
        "longitude": "42.71250000"
      },
      {
        "id": 30567,
        "name": "Goubétto",
        "latitude": "11.42389000",
        "longitude": "43.00028000"
      },
      {
        "id": 30569,
        "name": "Holhol",
        "latitude": "11.31028000",
        "longitude": "42.92944000"
      }
    ]
  },
  {
    "id": 2932,
    "country_id": 60,
    "name": "Arta",
    "state_code": "AR",
    "latitude": "11.52555280",
    "longitude": "42.84794740",
    "cities": [
      {
        "id": 30563,
        "name": "Arta",
        "latitude": "11.52639000",
        "longitude": "42.85194000"
      }
    ]
  },
  {
    "id": 2930,
    "country_id": 60,
    "name": "Dikhil",
    "state_code": "DI",
    "latitude": "11.10543360",
    "longitude": "42.37047440",
    "cities": [
      {
        "id": 30564,
        "name": "Dikhil",
        "latitude": "11.10454000",
        "longitude": "42.36971000"
      },
      {
        "id": 30568,
        "name": "Gâlâfi",
        "latitude": "11.71583000",
        "longitude": "41.83611000"
      }
    ]
  },
  {
    "id": 2929,
    "country_id": 60,
    "name": "Djibouti",
    "state_code": "DJ",
    "latitude": "11.82513800",
    "longitude": "42.59027500",
    "cities": [
      {
        "id": 30565,
        "name": "Djibouti",
        "latitude": "11.58901000",
        "longitude": "43.14503000"
      },
      {
        "id": 30570,
        "name": "Loyada",
        "latitude": "11.46111000",
        "longitude": "43.25278000"
      }
    ]
  },
  {
    "id": 2928,
    "country_id": 60,
    "name": "Obock",
    "state_code": "OB",
    "latitude": "12.38956910",
    "longitude": "43.01948970",
    "cities": [
      {
        "id": 30562,
        "name": "Alaïli Ḏaḏḏa‘",
        "latitude": "12.42167000",
        "longitude": "42.89556000"
      },
      {
        "id": 30571,
        "name": "Obock",
        "latitude": "11.96693000",
        "longitude": "43.28835000"
      }
    ]
  },
  {
    "id": 2931,
    "country_id": 60,
    "name": "Tadjourah",
    "state_code": "TA",
    "latitude": "11.93388850",
    "longitude": "42.39383750",
    "cities": [
      {
        "id": 30566,
        "name": "Dorra",
        "latitude": "12.15028000",
        "longitude": "42.47624000"
      },
      {
        "id": 30572,
        "name": "Tadjourah",
        "latitude": "11.78778000",
        "longitude": "42.88222000"
      }
    ]
  }
]