[
  {
    "id": 2727,
    "country_id": 79,
    "name": "Estuaire",
    "state_code": "1",
    "latitude": "0.44328640",
    "longitude": "10.08072980",
    "cities": [
      {
        "id": 48131,
        "name": "Cocobeach",
        "latitude": "1.00019000",
        "longitude": "9.58229000"
      },
      {
        "id": 48138,
        "name": "Libreville",
        "latitude": "0.39241000",
        "longitude": "9.45356000"
      },
      {
        "id": 48150,
        "name": "Ntoum",
        "latitude": "0.39051000",
        "longitude": "9.76096000"
      }
    ]
  },
  {
    "id": 2726,
    "country_id": 79,
    "name": "Haut-Ogooué",
    "state_code": "2",
    "latitude": "-1.47625440",
    "longitude": "13.91439900",
    "cities": [
      {
        "id": 48133,
        "name": "Franceville",
        "latitude": "-1.63333000",
        "longitude": "13.58357000"
      },
      {
        "id": 48139,
        "name": "Lékoni",
        "latitude": "-1.58431000",
        "longitude": "14.25905000"
      },
      {
        "id": 48145,
        "name": "Moanda",
        "latitude": "-1.56652000",
        "longitude": "13.19870000"
      },
      {
        "id": 48147,
        "name": "Mounana",
        "latitude": "-1.40850000",
        "longitude": "13.15857000"
      },
      {
        "id": 48151,
        "name": "Okondja",
        "latitude": "-0.65487000",
        "longitude": "13.67533000"
      }
    ]
  },
  {
    "id": 2730,
    "country_id": 79,
    "name": "Moyen-Ogooué",
    "state_code": "3",
    "latitude": "-0.44278400",
    "longitude": "10.43965600",
    "cities": [
      {
        "id": 48136,
        "name": "Lambaréné",
        "latitude": "-0.70010000",
        "longitude": "10.24055000"
      },
      {
        "id": 48149,
        "name": "Ndjolé",
        "latitude": "-0.17827000",
        "longitude": "10.76488000"
      }
    ]
  },
  {
    "id": 2731,
    "country_id": 79,
    "name": "Ngounié",
    "state_code": "4",
    "latitude": "-1.49303030",
    "longitude": "10.98070030",
    "cities": [
      {
        "id": 48132,
        "name": "Fougamou",
        "latitude": "-1.21544000",
        "longitude": "10.58378000"
      },
      {
        "id": 48142,
        "name": "Mbigou",
        "latitude": "-1.90046000",
        "longitude": "11.90600000"
      },
      {
        "id": 48143,
        "name": "Mimongo",
        "latitude": "-1.61952000",
        "longitude": "11.60675000"
      },
      {
        "id": 48146,
        "name": "Mouila",
        "latitude": "-1.86846000",
        "longitude": "11.05594000"
      },
      {
        "id": 48148,
        "name": "Ndendé",
        "latitude": "-2.40077000",
        "longitude": "11.35813000"
      }
    ]
  },
  {
    "id": 2725,
    "country_id": 79,
    "name": "Nyanga",
    "state_code": "5",
    "latitude": "-2.88210330",
    "longitude": "11.16173560",
    "cities": [
      {
        "id": 48141,
        "name": "Mayumba",
        "latitude": "-3.43198000",
        "longitude": "10.65540000"
      },
      {
        "id": 48155,
        "name": "Tchibanga",
        "latitude": "-2.93323000",
        "longitude": "10.98178000"
      }
    ]
  },
  {
    "id": 2724,
    "country_id": 79,
    "name": "Ogooué-Ivindo",
    "state_code": "6",
    "latitude": "0.88183110",
    "longitude": "13.17403480",
    "cities": [
      {
        "id": 48130,
        "name": "Booué",
        "latitude": "-0.09207000",
        "longitude": "11.93846000"
      },
      {
        "id": 48140,
        "name": "Makokou",
        "latitude": "0.57381000",
        "longitude": "12.86419000"
      },
      {
        "id": 48156,
        "name": "Zadie",
        "latitude": "0.92582000",
        "longitude": "13.90813000"
      }
    ]
  },
  {
    "id": 2729,
    "country_id": 79,
    "name": "Ogooué-Lolo",
    "state_code": "7",
    "latitude": "-0.88440930",
    "longitude": "12.43805810",
    "cities": [
      {
        "id": 48135,
        "name": "Koulamoutou",
        "latitude": "-1.13667000",
        "longitude": "12.46399000"
      },
      {
        "id": 48137,
        "name": "Lastoursville",
        "latitude": "-0.81742000",
        "longitude": "12.70818000"
      }
    ]
  },
  {
    "id": 2728,
    "country_id": 79,
    "name": "Ogooué-Maritime",
    "state_code": "8",
    "latitude": "-1.34659750",
    "longitude": "9.72326730",
    "cities": [
      {
        "id": 48134,
        "name": "Gamba",
        "latitude": "-2.65000000",
        "longitude": "10.00000000"
      },
      {
        "id": 48152,
        "name": "Omboué",
        "latitude": "-1.57464000",
        "longitude": "9.26184000"
      },
      {
        "id": 48154,
        "name": "Port-Gentil",
        "latitude": "-0.71933000",
        "longitude": "8.78151000"
      }
    ]
  },
  {
    "id": 2723,
    "country_id": 79,
    "name": "Woleu-Ntem",
    "state_code": "9",
    "latitude": "2.29898270",
    "longitude": "11.44669140",
    "cities": [
      {
        "id": 48129,
        "name": "Bitam",
        "latitude": "2.07597000",
        "longitude": "11.50065000"
      },
      {
        "id": 48144,
        "name": "Mitzic",
        "latitude": "0.78205000",
        "longitude": "11.54904000"
      },
      {
        "id": 48153,
        "name": "Oyem",
        "latitude": "1.59950000",
        "longitude": "11.57933000"
      }
    ]
  }
]