[
  {
    "id": 458,
    "country_id": 125,
    "name": "Balzers",
    "state_code": "01",
    "latitude": "42.05283570",
    "longitude": "-88.03668480",
    "cities": [
      {
        "id": 66437,
        "name": "Balzers",
        "latitude": "47.06665000",
        "longitude": "9.50251000"
      }
    ]
  },
  {
    "id": 451,
    "country_id": 125,
    "name": "Eschen",
    "state_code": "02",
    "latitude": "40.76695740",
    "longitude": "-73.95228210",
    "cities": [
      {
        "id": 66438,
        "name": "Eschen",
        "latitude": "47.21071000",
        "longitude": "9.52223000"
      }
    ]
  },
  {
    "id": 457,
    "country_id": 125,
    "name": "Gamprin",
    "state_code": "03",
    "latitude": "47.21324900",
    "longitude": "9.50251950",
    "cities": [
      {
        "id": 66439,
        "name": "Gamprin",
        "latitude": "47.22038000",
        "longitude": "9.50935000"
      }
    ]
  },
  {
    "id": 455,
    "country_id": 125,
    "name": "Mauren",
    "state_code": "04",
    "latitude": "47.21892850",
    "longitude": "9.54173500",
    "cities": [
      {
        "id": 66440,
        "name": "Mauren",
        "latitude": "47.21805000",
        "longitude": "9.54420000"
      }
    ]
  },
  {
    "id": 454,
    "country_id": 125,
    "name": "Planken",
    "state_code": "05",
    "latitude": "40.66505760",
    "longitude": "-73.50479800",
    "cities": [
      {
        "id": 66441,
        "name": "Planken",
        "latitude": "47.18516000",
        "longitude": "9.54437000"
      }
    ]
  },
  {
    "id": 453,
    "country_id": 125,
    "name": "Ruggell",
    "state_code": "06",
    "latitude": "47.25292220",
    "longitude": "9.54021270",
    "cities": [
      {
        "id": 66442,
        "name": "Ruggell",
        "latitude": "47.23799000",
        "longitude": "9.52540000"
      }
    ]
  },
  {
    "id": 450,
    "country_id": 125,
    "name": "Schaan",
    "state_code": "07",
    "latitude": "47.12043400",
    "longitude": "9.59416020",
    "cities": [
      {
        "id": 66443,
        "name": "Schaan",
        "latitude": "47.16498000",
        "longitude": "9.50867000"
      }
    ]
  },
  {
    "id": 449,
    "country_id": 125,
    "name": "Schellenberg",
    "state_code": "08",
    "latitude": "47.23096600",
    "longitude": "9.54678430",
    "cities": [
      {
        "id": 66444,
        "name": "Schellenberg",
        "latitude": "47.23123000",
        "longitude": "9.54678000"
      }
    ]
  },
  {
    "id": 459,
    "country_id": 125,
    "name": "Triesen",
    "state_code": "09",
    "latitude": "47.10979880",
    "longitude": "9.52482960",
    "cities": [
      {
        "id": 66445,
        "name": "Triesen",
        "latitude": "47.10752000",
        "longitude": "9.52815000"
      }
    ]
  },
  {
    "id": 456,
    "country_id": 125,
    "name": "Triesenberg",
    "state_code": "10",
    "latitude": "47.12245110",
    "longitude": "9.57019850",
    "cities": [
      {
        "id": 66446,
        "name": "Triesenberg",
        "latitude": "47.11815000",
        "longitude": "9.54197000"
      }
    ]
  },
  {
    "id": 452,
    "country_id": 125,
    "name": "Vaduz",
    "state_code": "11",
    "latitude": "47.14103030",
    "longitude": "9.52092770",
    "cities": [
      {
        "id": 66447,
        "name": "Vaduz",
        "latitude": "47.14151000",
        "longitude": "9.52154000"
      }
    ]
  }
]