[
  {
    "id": 488,
    "country_id": 6,
    "name": "Andorra la Vella",
    "state_code": "07",
    "latitude": "42.50631740",
    "longitude": "1.52183550",
    "cities": [
      {
        "id": 1,
        "name": "Andorra la Vella",
        "latitude": "42.50779000",
        "longitude": "1.52109000"
      }
    ]
  },
  {
    "id": 489,
    "country_id": 6,
    "name": "Canillo",
    "state_code": "02",
    "latitude": "42.59782490",
    "longitude": "1.65663770",
    "cities": [
      {
        "id": 3,
        "name": "Canillo",
        "latitude": "42.56760000",
        "longitude": "1.59756000"
      },
      {
        "id": 4,
        "name": "El Tarter",
        "latitude": "42.57952000",
        "longitude": "1.65362000"
      }
    ]
  },
  {
    "id": 487,
    "country_id": 6,
    "name": "Encamp",
    "state_code": "03",
    "latitude": "42.53597640",
    "longitude": "1.58367730",
    "cities": [
      {
        "id": 5,
        "name": "Encamp",
        "latitude": "42.53474000",
        "longitude": "1.58014000"
      },
      {
        "id": 7,
        "name": "Pas de la Casa",
        "latitude": "42.54277000",
        "longitude": "1.73361000"
      }
    ]
  },
  {
    "id": 492,
    "country_id": 6,
    "name": "Escaldes-Engordany",
    "state_code": "08",
    "latitude": "42.49093790",
    "longitude": "1.58869660",
    "cities": [
      {
        "id": 10,
        "name": "les Escaldes",
        "latitude": "42.50729000",
        "longitude": "1.53414000"
      }
    ]
  },
  {
    "id": 493,
    "country_id": 6,
    "name": "La Massana",
    "state_code": "04",
    "latitude": "42.54562500",
    "longitude": "1.51473920",
    "cities": [
      {
        "id": 2,
        "name": "Arinsal",
        "latitude": "42.57205000",
        "longitude": "1.48453000"
      },
      {
        "id": 9,
        "name": "la Massana",
        "latitude": "42.54499000",
        "longitude": "1.51483000"
      }
    ]
  },
  {
    "id": 491,
    "country_id": 6,
    "name": "Ordino",
    "state_code": "05",
    "latitude": "42.59944330",
    "longitude": "1.54023270",
    "cities": [
      {
        "id": 6,
        "name": "Ordino",
        "latitude": "42.55623000",
        "longitude": "1.53319000"
      }
    ]
  },
  {
    "id": 490,
    "country_id": 6,
    "name": "Sant Julià de Lòria",
    "state_code": "06",
    "latitude": "42.45296310",
    "longitude": "1.49182350",
    "cities": [
      {
        "id": 8,
        "name": "Sant Julià de Lòria",
        "latitude": "42.46372000",
        "longitude": "1.49129000"
      }
    ]
  }
]